{"type": "FeatureCollection",
	"features"	: [
	{"type": "Feature",
			"geometry"	: {"type": "Point", "coordinates": [-3.187885, 55.944709]},
			"properties": {"marker-size": "medium", "location": "hurt.green.filer", "rgb-string": "#ffc000", "marker-color": "#ffc000", "marker-symbol": "danger"}
			},
	{"type": "Feature",
			"geometry"	: {"type": "Point", "coordinates": [-3.187645, 55.944143]},
			"properties": {"marker-size": "medium", "location": "bound.ends.matter", "rgb-string": "#40ff00", "marker-color": "#40ff00", "marker-symbol": "lighthouse"}
			},
	{"type": "Feature",
			"geometry"	: {"type": "Point", "coordinates": [-3.188126, 55.943793]},
			"properties": {"marker-size": "medium", "location": "cubs.trucks.help", "rgb-string": "#40ff00", "marker-color": "#40ff00", "marker-symbol": "lighthouse"}
			},
	{"type": "Feature",
			"geometry"	: {"type": "Point", "coordinates": [-3.187837, 55.943227]},
			"properties": {"marker-size": "medium", "location": "gums.clock.modes", "rgb-string": "#c0ff00", "marker-color": "#c0ff00", "marker-symbol": "lighthouse"}
			},
	{"type": "Feature",
			"geometry"	: {"type": "Point", "coordinates": [-3.187693, 55.942769]},
			"properties": {"marker-size": "medium", "location": "panic.squad.danger", "rgb-string": "#ffc000", "marker-color": "#ffc000", "marker-symbol": "danger"}
			},
	{"type": "Feature",
			"geometry"	: {"type": "Point", "coordinates": [-3.187355, 55.943604]},
			"properties": {"marker-size": "medium", "location": "shut.stands.media", "rgb-string": "#000000", "marker-color": "#000000", "marker-symbol": "cross"}
			},
	{"type": "Feature",
			"geometry"	: {"type": "Point", "coordinates": [-3.186344, 55.942958]},
			"properties": {"marker-size": "medium", "location": "hers.banks.goat", "rgb-string": "#ffc000", "marker-color": "#ffc000", "marker-symbol": "danger"}
			},
	{"type": "Feature",
			"geometry"	: {"type": "Point", "coordinates": [-3.185621, 55.943065]},
			"properties": {"marker-size": "medium", "location": "toned.deflection.bland", "rgb-string": "#c0ff00", "marker-color": "#c0ff00", "marker-symbol": "lighthouse"}
			},
	{"type": "Feature",
			"geometry"	: {"type": "Point", "coordinates": [-3.184754, 55.943012]},
			"properties": {"marker-size": "medium", "location": "courier.assume.bill", "rgb-string": "#ff8000", "marker-color": "#ff8000", "marker-symbol": "danger"}
			},
	{"type": "Feature",
			"geometry"	: {"type": "Point", "coordinates": [-3.185525, 55.943982]},
			"properties": {"marker-size": "medium", "location": "manliness.poem.cliff", "rgb-string": "#ff8000", "marker-color": "#ff8000", "marker-symbol": "danger"}
			},
	{"type": "Feature",
			"geometry"	: {"type": "Point", "coordinates": [-3.186103, 55.944251]},
			"properties": {"marker-size": "medium", "location": "organs.shape.fantastic", "rgb-string": "#ffc000", "marker-color": "#ffc000", "marker-symbol": "danger"}
			},
	{"type": "Feature",
			"geometry"	: {"type": "Point", "coordinates": [-3.185236, 55.944575]},
			"properties": {"marker-size": "medium", "location": "acid.chair.butter", "rgb-string": "#ff0000", "marker-color": "#ff0000", "marker-symbol": "danger"}
			},
	{"type": "Feature",
			"geometry"	: {"type": "Point", "coordinates": [-3.185332, 55.946138]},
			"properties": {"marker-size": "medium", "location": "prime.rent.silk", "rgb-string": "#ff8000", "marker-color": "#ff8000", "marker-symbol": "danger"}
			},
	{"type": "Feature",
			"geometry"	: {"type": "Point", "coordinates": [-3.186296, 55.945761]},
			"properties": {"marker-size": "medium", "location": "posts.kicked.universally", "rgb-string": "#ff8000", "marker-color": "#ff8000", "marker-symbol": "danger"}
			},
	{"type": "Feature",
			"geometry"	: {"type": "Point", "coordinates": [-3.186729, 55.945653]},
			"properties": {"marker-size": "medium", "location": "hidden.handle.softly", "rgb-string": "#ff0000", "marker-color": "#ff0000", "marker-symbol": "danger"}
			},
	{"type": "Feature",
			"geometry"	: {"type": "Point", "coordinates": [-3.186922, 55.945437]},
			"properties": {"marker-size": "medium", "location": "spent.spoon.bolt", "rgb-string": "#ff4000", "marker-color": "#ff4000", "marker-symbol": "danger"}
			},
	{"type": "Feature",
			"geometry"	: {"type": "Point", "coordinates": [-3.188945, 55.943928]},
			"properties": {"marker-size": "medium", "location": "noted.friday.jams", "rgb-string": "#40ff00", "marker-color": "#40ff00", "marker-symbol": "lighthouse"}
			},
	{"type": "Feature",
			"geometry"	: {"type": "Point", "coordinates": [-3.189619, 55.94382]},
			"properties": {"marker-size": "medium", "location": "burn.spot.across", "rgb-string": "#40ff00", "marker-color": "#40ff00", "marker-symbol": "lighthouse"}
			},
	{"type": "Feature",
			"geometry"	: {"type": "Point", "coordinates": [-3.189234, 55.943012]},
			"properties": {"marker-size": "medium", "location": "region.passes.pencil", "rgb-string": "#40ff00", "marker-color": "#40ff00", "marker-symbol": "lighthouse"}
			},
	{"type": "Feature",
			"geometry"	: {"type": "Point", "coordinates": [-3.189764, 55.942661]},
			"properties": {"marker-size": "medium", "location": "hooked.shine.third", "rgb-string": "#40ff00", "marker-color": "#40ff00", "marker-symbol": "lighthouse"}
			},
	{"type": "Feature",
			"geometry"	: {"type": "Point", "coordinates": [-3.189908, 55.942904]},
			"properties": {"marker-size": "medium", "location": "second.launch.miles", "rgb-string": "#40ff00", "marker-color": "#40ff00", "marker-symbol": "lighthouse"}
			},
	{"type": "Feature",
			"geometry"	: {"type": "Point", "coordinates": [-3.190053, 55.943173]},
			"properties": {"marker-size": "medium", "location": "shows.fries.lamp", "rgb-string": "#40ff00", "marker-color": "#40ff00", "marker-symbol": "lighthouse"}
			},
	{"type": "Feature",
			"geometry"	: {"type": "Point", "coordinates": [-3.190727, 55.943092]},
			"properties": {"marker-size": "medium", "location": "relate.chill.vest", "rgb-string": "#000000", "marker-color": "#000000", "marker-symbol": "cross"}
			},
	{"type": "Feature",
			"geometry"	: {"type": "Point", "coordinates": [-3.191161, 55.943065]},
			"properties": {"marker-size": "medium", "location": "else.urban.museum", "rgb-string": "#00ff00", "marker-color": "#00ff00", "marker-symbol": "lighthouse"}
			},
	{"type": "Feature",
			"geometry"	: {"type": "Point", "coordinates": [-3.190438, 55.943982]},
			"properties": {"marker-size": "medium", "location": "pump.wheels.hulk", "rgb-string": "#40ff00", "marker-color": "#40ff00", "marker-symbol": "lighthouse"}
			},
	{"type": "Feature",
			"geometry"	: {"type": "Point", "coordinates": [-3.191113, 55.94417]},
			"properties": {"marker-size": "medium", "location": "hills.giant.crate", "rgb-string": "#00ff00", "marker-color": "#00ff00", "marker-symbol": "lighthouse"}
			},
	{"type": "Feature",
			"geometry"	: {"type": "Point", "coordinates": [-3.191065, 55.94444]},
			"properties": {"marker-size": "medium", "location": "paying.crowd.weep", "rgb-string": "#40ff00", "marker-color": "#40ff00", "marker-symbol": "lighthouse"}
			},
	{"type": "Feature",
			"geometry"	: {"type": "Point", "coordinates": [-3.192221, 55.945114]},
			"properties": {"marker-size": "medium", "location": "useful.hike.trades", "rgb-string": "#ff8000", "marker-color": "#ff8000", "marker-symbol": "danger"}
			},
	{"type": "Feature",
			"geometry"	: {"type": "Point", "coordinates": [-3.191594, 55.945195]},
			"properties": {"marker-size": "medium", "location": "hills.feels.tunes", "rgb-string": "#ff8000", "marker-color": "#ff8000", "marker-symbol": "danger"}
			},
	{"type": "Feature",
			"geometry"	: {"type": "Point", "coordinates": [-3.191161, 55.945976]},
			"properties": {"marker-size": "medium", "location": "simple.rust.audio", "rgb-string": "#ff0000", "marker-color": "#ff0000", "marker-symbol": "danger"}
			},
	{"type": "Feature",
			"geometry"	: {"type": "Point", "coordinates": [-3.191016, 55.945248]},
			"properties": {"marker-size": "medium", "location": "maple.limit.hotels", "rgb-string": "#ff8000", "marker-color": "#ff8000", "marker-symbol": "danger"}
			},
	{"type": "Feature",
			"geometry"	: {"type": "Point", "coordinates": [-3.189186, 55.945087]},
			"properties": {"marker-size": "medium", "location": "number.exist.rate", "rgb-string": "#c0ff00", "marker-color": "#c0ff00", "marker-symbol": "lighthouse"}
			},
	{"type": "Feature",
			"geometry"	: {"type": "Point", "coordinates": [-3.188704, 55.945168]},
			"properties": {"marker-size": "medium", "location": "rooms.lamp.teach", "rgb-string": "#ff8000", "marker-color": "#ff8000", "marker-symbol": "danger"}
			},
	{"type": "Feature",
			"geometry": {"type": "LineString",
				"coordinates": [
				[-3.188396, 55.944425],[-3.1881361923788645, 55.944575],[-3.187876384757729, 55.944725],[-3.1877737787147313, 55.94444309221376],[-3.1876711726717337, 55.94416118442752],[-3.1879009860046694, 55.943968348144615],[-3.188130799337605, 55.94377551186171],[-3.187980799337605, 55.943515704240575],[-3.187830799337605, 55.94325589661944],[-3.1877281932946073, 55.9429739888332],[-3.1876760988413073, 55.942678546507295],[-3.1875734927983097, 55.942960454293534],[-3.187470886755312, 55.94324236207977],[-3.1873682807123145, 55.94352426986601],[-3.187108473091179, 55.94337426986601],[-3.1868486654700434, 55.943224269866015],[-3.186588857848908, 55.94307426986602],[-3.1863290502277724, 55.94292426986602],[-3.1860336079018685, 55.94297636431932],[-3.1857381655759647, 55.94302845877262],[-3.1854381655759645, 55.94302845877262],[-3.1851381655759643, 55.94302845877262],[-3.184838165575964, 55.94302845877262],[-3.18503100185887, 55.94325827210556],[-3.18518100185887, 55.943518079726694],[-3.1853738381417758, 55.94374789305963],[-3.185523838141776, 55.944007700680764],[-3.1858057459280116, 55.944110306723765],[-3.186065553549147, 55.94426030672376],[-3.1857836457629114, 55.94436291276676],[-3.1855017379766757, 55.944465518809764],[-3.18521983019044, 55.944568124852765],[-3.18521983019044, 55.94486812485277],[-3.18527192464374, 55.945163567178675],[-3.18527192464374, 55.94546356717868],[-3.18532401909704, 55.945759009504584],[-3.18532401909704, 55.94605900950459],[-3.1856059268832757, 55.94595640346159],[-3.1858878346695114, 55.945853797418586],[-3.1861832769954153, 55.945801702965284],[-3.186465184781651, 55.94569909692228],[-3.186760627107555, 55.94564700246898],[-3.1869534633904606, 55.945417189136045],[-3.1871462996733664, 55.94564700246898],[-3.187406107294502, 55.94549700246898],[-3.1877015496204057, 55.945549096922285],[-3.1879834574066415, 55.945446490879284],[-3.1882788997325453, 55.94539439642598],[-3.188381505775543, 55.945112488639744],[-3.188531505775543, 55.94485268101861],[-3.1886341118185406, 55.94457077323237],[-3.1887841118185407, 55.94431096561124],[-3.1888867178615383, 55.944029057825],[-3.189168625647774, 55.943926451782],[-3.189464067973678, 55.943874357328696],[-3.189411973520378, 55.94357891500279],[-3.1893093674773803, 55.94329700721655],[-3.1892572730240802, 55.94300156489064],[-3.1895170806452158, 55.942851564890645],[-3.1898125229711196, 55.94279947043734],[-3.1900053592540254, 55.94302928377028],[-3.190107965297023, 55.94331119155652],[-3.1903898730832587, 55.94320858551352],[-3.1906717808694944, 55.943105979470516],[-3.1909672231953983, 55.943053885017214],[-3.190817223195398, 55.94331369263835],[-3.190667223195398, 55.94357350025948],[-3.190517223195398, 55.94383330788062],[-3.1907770308165335, 55.943983307880615],[-3.191036838437669, 55.94413330788061],[-3.191088932890969, 55.94442875020652],[-3.1913487405121046, 55.94457875020652],[-3.19160854813324, 55.944728750206515],[-3.1918683557543757, 55.94487875020651],[-3.192128163375511, 55.94502875020651],[-3.1918462555892755, 55.94513135624951],[-3.1915508132633716, 55.945183450702814],[-3.1914008132633715, 55.94544325832395],[-3.191298207220374, 55.945725166110186],[-3.191148207220374, 55.94598497373132],[-3.191096112767074, 55.945689531405414],[-3.191044018313774, 55.94539408907951],[-3.19074857598787, 55.945341994626204],[-3.190453133661966, 55.9452899001729],[-3.1901576913360623, 55.9452378057196],[-3.1898622490101585, 55.9451857112663],[-3.1895668066842546, 55.945133616812996],[-3.189271364358351, 55.94508152235969],[-3.188975922032447, 55.945133616812996],[-3.188680479706543, 55.9451857112663],[-3.1885778736635455, 55.94490380348006],[-3.188475267620548, 55.94462189569382]
				]
			},"properties":{
		}
	}
		
	]
}