{"type": "FeatureCollection",
	"features"	: [
	{"type": "Feature",
			"geometry"	: {"type": "Point", "coordinates": [-3.189186, 55.945087]},
			"properties": {"marker-size": "medium", "location": "number.exist.rate", "rgb-string": "#80ff00", "marker-color": "#80ff00", "marker-symbol": "lighthouse"}
			},
	{"type": "Feature",
			"geometry"	: {"type": "Point", "coordinates": [-3.188801, 55.945437]},
			"properties": {"marker-size": "medium", "location": "shady.soft.phones", "rgb-string": "#c0ff00", "marker-color": "#c0ff00", "marker-symbol": "lighthouse"}
			},
	{"type": "Feature",
			"geometry"	: {"type": "Point", "coordinates": [-3.188319, 55.945518]},
			"properties": {"marker-size": "medium", "location": "skills.less.herb", "rgb-string": "#ff8000", "marker-color": "#ff8000", "marker-symbol": "danger"}
			},
	{"type": "Feature",
			"geometry"	: {"type": "Point", "coordinates": [-3.188897, 55.945707]},
			"properties": {"marker-size": "medium", "location": "stops.else.chats", "rgb-string": "#ffc000", "marker-color": "#ffc000", "marker-symbol": "danger"}
			},
	{"type": "Feature",
			"geometry"	: {"type": "Point", "coordinates": [-3.18986, 55.945491]},
			"properties": {"marker-size": "medium", "location": "turkey.limit.ramp", "rgb-string": "#ff8000", "marker-color": "#ff8000", "marker-symbol": "danger"}
			},
	{"type": "Feature",
			"geometry"	: {"type": "Point", "coordinates": [-3.189957, 55.94603]},
			"properties": {"marker-size": "medium", "location": "love.behind.orchestra", "rgb-string": "#ff0000", "marker-color": "#ff0000", "marker-symbol": "danger"}
			},
	{"type": "Feature",
			"geometry"	: {"type": "Point", "coordinates": [-3.191594, 55.945195]},
			"properties": {"marker-size": "medium", "location": "hills.feels.tunes", "rgb-string": "#ff0000", "marker-color": "#ff0000", "marker-symbol": "danger"}
			},
	{"type": "Feature",
			"geometry"	: {"type": "Point", "coordinates": [-3.191065, 55.94444]},
			"properties": {"marker-size": "medium", "location": "paying.crowd.weep", "rgb-string": "#80ff00", "marker-color": "#80ff00", "marker-symbol": "lighthouse"}
			},
	{"type": "Feature",
			"geometry"	: {"type": "Point", "coordinates": [-3.191113, 55.943901]},
			"properties": {"marker-size": "medium", "location": "spicy.bunch.shady", "rgb-string": "#40ff00", "marker-color": "#40ff00", "marker-symbol": "lighthouse"}
			},
	{"type": "Feature",
			"geometry"	: {"type": "Point", "coordinates": [-3.191161, 55.942742]},
			"properties": {"marker-size": "medium", "location": "along.spill.limp", "rgb-string": "#00ff00", "marker-color": "#00ff00", "marker-symbol": "lighthouse"}
			},
	{"type": "Feature",
			"geometry"	: {"type": "Point", "coordinates": [-3.190583, 55.942823]},
			"properties": {"marker-size": "medium", "location": "tonic.bliss.cove", "rgb-string": "#00ff00", "marker-color": "#00ff00", "marker-symbol": "lighthouse"}
			},
	{"type": "Feature",
			"geometry"	: {"type": "Point", "coordinates": [-3.190197, 55.943443]},
			"properties": {"marker-size": "medium", "location": "arts.dish.scarcely", "rgb-string": "#00ff00", "marker-color": "#00ff00", "marker-symbol": "lighthouse"}
			},
	{"type": "Feature",
			"geometry"	: {"type": "Point", "coordinates": [-3.188608, 55.943119]},
			"properties": {"marker-size": "medium", "location": "groups.ideas.script", "rgb-string": "#40ff00", "marker-color": "#40ff00", "marker-symbol": "lighthouse"}
			},
	{"type": "Feature",
			"geometry"	: {"type": "Point", "coordinates": [-3.187837, 55.943227]},
			"properties": {"marker-size": "medium", "location": "gums.clock.modes", "rgb-string": "#80ff00", "marker-color": "#80ff00", "marker-symbol": "lighthouse"}
			},
	{"type": "Feature",
			"geometry"	: {"type": "Point", "coordinates": [-3.186344, 55.942958]},
			"properties": {"marker-size": "medium", "location": "hers.banks.goat", "rgb-string": "#ff0000", "marker-color": "#ff0000", "marker-symbol": "danger"}
			},
	{"type": "Feature",
			"geometry"	: {"type": "Point", "coordinates": [-3.185814, 55.943551]},
			"properties": {"marker-size": "medium", "location": "record.sofa.sock", "rgb-string": "#c0ff00", "marker-color": "#c0ff00", "marker-symbol": "lighthouse"}
			},
	{"type": "Feature",
			"geometry"	: {"type": "Point", "coordinates": [-3.185621, 55.943065]},
			"properties": {"marker-size": "medium", "location": "toned.deflection.bland", "rgb-string": "#ffc000", "marker-color": "#ffc000", "marker-symbol": "danger"}
			},
	{"type": "Feature",
			"geometry"	: {"type": "Point", "coordinates": [-3.184803, 55.943173]},
			"properties": {"marker-size": "medium", "location": "brings.remedy.latter", "rgb-string": "#ff0000", "marker-color": "#ff0000", "marker-symbol": "danger"}
			},
	{"type": "Feature",
			"geometry"	: {"type": "Point", "coordinates": [-3.184658, 55.943874]},
			"properties": {"marker-size": "medium", "location": "rider.mile.lime", "rgb-string": "#ff4000", "marker-color": "#ff4000", "marker-symbol": "danger"}
			},
	{"type": "Feature",
			"geometry"	: {"type": "Point", "coordinates": [-3.184513, 55.945302]},
			"properties": {"marker-size": "medium", "location": "settle.title.united", "rgb-string": "#ffc000", "marker-color": "#ffc000", "marker-symbol": "danger"}
			},
	{"type": "Feature",
			"geometry"	: {"type": "Point", "coordinates": [-3.185043, 55.945868]},
			"properties": {"marker-size": "medium", "location": "rider.aura.bulb", "rgb-string": "#ffc000", "marker-color": "#ffc000", "marker-symbol": "danger"}
			},
	{"type": "Feature",
			"geometry"	: {"type": "Point", "coordinates": [-3.185332, 55.946138]},
			"properties": {"marker-size": "medium", "location": "prime.rent.silk", "rgb-string": "#ff4000", "marker-color": "#ff4000", "marker-symbol": "danger"}
			},
	{"type": "Feature",
			"geometry"	: {"type": "Point", "coordinates": [-3.185814, 55.94603]},
			"properties": {"marker-size": "medium", "location": "renew.slows.basket", "rgb-string": "#ffc000", "marker-color": "#ffc000", "marker-symbol": "danger"}
			},
	{"type": "Feature",
			"geometry"	: {"type": "Point", "coordinates": [-3.186296, 55.945761]},
			"properties": {"marker-size": "medium", "location": "posts.kicked.universally", "rgb-string": "#ffc000", "marker-color": "#ffc000", "marker-symbol": "danger"}
			},
	{"type": "Feature",
			"geometry"	: {"type": "Point", "coordinates": [-3.186729, 55.945653]},
			"properties": {"marker-size": "medium", "location": "hidden.handle.softly", "rgb-string": "#ffc000", "marker-color": "#ffc000", "marker-symbol": "danger"}
			},
	{"type": "Feature",
			"geometry"	: {"type": "Point", "coordinates": [-3.187404, 55.945949]},
			"properties": {"marker-size": "medium", "location": "slips.mass.baking", "rgb-string": "#ffc000", "marker-color": "#ffc000", "marker-symbol": "danger"}
			},
	{"type": "Feature",
			"geometry"	: {"type": "Point", "coordinates": [-3.186922, 55.945437]},
			"properties": {"marker-size": "medium", "location": "spent.spoon.bolt", "rgb-string": "#ff0000", "marker-color": "#ff0000", "marker-symbol": "danger"}
			},
	{"type": "Feature",
			"geometry"	: {"type": "Point", "coordinates": [-3.186537, 55.944925]},
			"properties": {"marker-size": "medium", "location": "laws.merit.bleak", "rgb-string": "#ff4000", "marker-color": "#ff4000", "marker-symbol": "danger"}
			},
	{"type": "Feature",
			"geometry"	: {"type": "Point", "coordinates": [-3.18567, 55.944359]},
			"properties": {"marker-size": "medium", "location": "atoms.vanish.foods", "rgb-string": "#000000", "marker-color": "#000000", "marker-symbol": "cross"}
			},
	{"type": "Feature",
			"geometry"	: {"type": "Point", "coordinates": [-3.186777, 55.944575]},
			"properties": {"marker-size": "medium", "location": "artist.gets.react", "rgb-string": "#c0ff00", "marker-color": "#c0ff00", "marker-symbol": "lighthouse"}
			},
	{"type": "Feature",
			"geometry"	: {"type": "Point", "coordinates": [-3.187307, 55.944494]},
			"properties": {"marker-size": "medium", "location": "only.fairly.rift", "rgb-string": "#000000", "marker-color": "#000000", "marker-symbol": "cross"}
			},
	{"type": "Feature",
			"geometry"	: {"type": "Point", "coordinates": [-3.187645, 55.944143]},
			"properties": {"marker-size": "medium", "location": "bound.ends.matter", "rgb-string": "#40ff00", "marker-color": "#40ff00", "marker-symbol": "lighthouse"}
			},
	{"type": "Feature",
			"geometry"	: {"type": "Point", "coordinates": [-3.187789, 55.944386]},
			"properties": {"marker-size": "medium", "location": "thank.salsa.brain", "rgb-string": "#40ff00", "marker-color": "#40ff00", "marker-symbol": "lighthouse"}
			},
	{"type": "Feature",
			"geometry": {"type": "LineString",
				"coordinates": [
				[-3.188396, 55.944425],[-3.1886258133329357, 55.94461783628291],[-3.1888556266658714, 55.944810672565815],[-3.189085439998807, 55.94500350884872],[-3.188935439998807, 55.945263316469855],[-3.1887426037159012, 55.94549312980279],[-3.1884471613899974, 55.945545224256094],[-3.188729069176233, 55.945647830299094],[-3.189024511502137, 55.94559573584579],[-3.189319953828041, 55.94554364139249],[-3.1896153961539446, 55.94549154693919],[-3.1899108384798485, 55.945439452485886],[-3.1899108384798485, 55.94573945248589],[-3.1899629329331485, 55.946034894811795],[-3.190222740554284, 55.9458848948118],[-3.1904825481754195, 55.9457348948118],[-3.190742355796555, 55.9455848948118],[-3.191024263582791, 55.9454822887688],[-3.1912840712039263, 55.9453322887688],[-3.191565978990162, 55.9452296827258],[-3.191415978990162, 55.94496987510467],[-3.191265978990162, 55.944710067483534],[-3.191073142707256, 55.9444802541506],[-3.191073142707256, 55.944180254150595],[-3.191125237160556, 55.94388481182469],[-3.191125237160556, 55.943584811824685],[-3.191125237160556, 55.94328481182468],[-3.191125237160556, 55.94298481182468],[-3.191177331613856, 55.94268936949877],[-3.1908818892879522, 55.942741463952075],[-3.1905999815017165, 55.942844069995076],[-3.1904499815017164, 55.94310387761621],[-3.1902571452188107, 55.943333690949146],[-3.189961702892907, 55.943281596495844],[-3.189666260567003, 55.94322950204254],[-3.189370818241099, 55.94317740758924],[-3.1890753759151953, 55.94312531313594],[-3.1887799335892915, 55.943073218682635],[-3.1884844912633876, 55.94312531313594],[-3.188189048937484, 55.94317740758924],[-3.18789360661158, 55.94322950204254],[-3.187598164285676, 55.94317740758924],[-3.1873027219597723, 55.94312531313594],[-3.1870072796338684, 55.943073218682635],[-3.1867118373079646, 55.94302112422933],[-3.1864163949820608, 55.94296902977603],[-3.186186581649125, 55.94316186605894],[-3.1859937453662193, 55.94339167939187],[-3.1857639320332836, 55.94358451567478],[-3.185661325990286, 55.94330260788854],[-3.185609231536986, 55.94300716556263],[-3.185313789211082, 55.943059260015936],[-3.1850183468851783, 55.94311135446924],[-3.1847364390989426, 55.94321396051224],[-3.1846843446456425, 55.943509402838146],[-3.1846843446456425, 55.94380940283815],[-3.1846322501923425, 55.944104845164055],[-3.1845801557390425, 55.94440028748996],[-3.1845801557390425, 55.944700287489965],[-3.1845280612857425, 55.94499572981587],[-3.1845280612857425, 55.945295729815875],[-3.1847208975686483, 55.94552554314881],[-3.184913733851554, 55.94575535648175],[-3.1851435471844898, 55.945948192764654],[-3.1853363834673956, 55.94617800609759],[-3.1856182912536313, 55.94607540005459],[-3.185913733579535, 55.94602330560129],[-3.1861735412006706, 55.94587330560129],[-3.1864554489869064, 55.94577069955829],[-3.186737356773142, 55.94566809351529],[-3.187019264559378, 55.94577069955829],[-3.1873011723456135, 55.94587330560129],[-3.1871083360627077, 55.94564349226835],[-3.186915499779802, 55.94541367893542],[-3.186722663496896, 55.94518386560248],[-3.1865298272139904, 55.944954052269544],[-3.186270019592855, 55.944804052269546],[-3.186040206259919, 55.94461121598664],[-3.1857803986387836, 55.94446121598664],[-3.1860758409646874, 55.944513310439945],[-3.1863712832905913, 55.94456540489325],[-3.186653191076827, 55.94466801093625],[-3.186948633402731, 55.944615916482945],[-3.1872305411889665, 55.944513310439945],[-3.1874603545219022, 55.94432047415704],[-3.187690167854838, 55.94412763787413],[-3.1877927738978356, 55.94440954566037],[-3.1880882162237394, 55.94446164011367],[-3.1883836585496432, 55.94440954566037]
				]
			},"properties":{
		}
	}
		
	]
}