{"type": "FeatureCollection",
	"features"	: [
	{"type": "Feature",
			"geometry"	: {"type": "Polygon", "coordinates": [[[-3.1871804594993587, 55.94448750356385],[-3.187042325735092, 55.944193856370475],[-3.1869766116142273, 55.94420361961219],[-3.186897486448288, 55.94404815847112],[-3.186330199241638, 55.94413227278919],[-3.186405301094055, 55.944296745793935],[-3.1863033771514893, 55.944311015108454],[-3.1863395869731903, 55.94437109637507],[-3.186409324407577, 55.94436208419099],[-3.186425417661667, 55.944397381899876],[-3.186226934194565, 55.94442366740687],[-3.1863945722579956, 55.94457011490493],[-3.1864307820796967, 55.94458588614092],[-3.186488449573517, 55.94459189422912],[-3.1871804594993587, 55.94448750356385],[-3.1871804594993587, 55.94448750356385]]]},
		"properties": {"fill-opacity": 0.5, "fill": "#ff0000"}},
	{"type": "Feature",
			"geometry"	: {"type": "Polygon", "coordinates": [[[-3.186697661876678, 55.943360216655655],[-3.186556175351143, 55.94306656091478],[-3.186345621943474, 55.943098480124895],[-3.1864864379167557, 55.94339251114087],[-3.186697661876678, 55.943360216655655],[-3.186697661876678, 55.943360216655655]]]},
		"properties": {"fill-opacity": 0.5, "fill": "#ff0000"}},
	{"type": "Feature",
			"geometry"	: {"type": "Polygon", "coordinates": [[[-3.189708441495895, 55.94280820210462],[-3.1894750893115997, 55.94233128523903],[-3.1882721185684204, 55.942514542178216],[-3.1885054707527156, 55.94299295887116],[-3.189708441495895, 55.94280820210462],[-3.189708441495895, 55.94280820210462]]]},
		"properties": {"fill-opacity": 0.5, "fill": "#ff0000"}},
	{"type": "Feature",
			"geometry"	: {"type": "Polygon", "coordinates": [[[-3.188078999519348, 55.94541799748307],[-3.187633752822876, 55.94458288209647],[-3.1869176030158997, 55.94470154167527],[-3.187046349048614, 55.94494186375901],[-3.186909556388855, 55.944964393877896],[-3.18678081035614, 55.94481569485101],[-3.1865662336349487, 55.94487727734554],[-3.187113404273987, 55.94555317633777],[-3.1872957944869995, 55.945505112799054],[-3.187832236289978, 55.945460053177314],[-3.188078999519348, 55.94541799748307],[-3.188078999519348, 55.94541799748307]]]},
		"properties": {"fill-opacity": 0.5, "fill": "#ff0000"}},
	{"type": "Feature",
			"geometry"	: {"type": "Polygon", "coordinates": [[[-3.184319, 55.946233], [-3.184319, 55.942617], [-3.192473, 55.942617], [-3.192473, 55.946233]]]},
		"properties": {"fill-opacity": 0}},
	{"type": "Feature",
			"geometry"	: {"type": "Point", "coordinates": [-3.18514, 55.943685]},
			"properties": {"marker-size": "medium", "location": "hello.love.keys", "rgb-string": "#ffc000", "marker-color": "#ffc000", "marker-symbol": "danger"}
			},
	{"type": "Feature",
			"geometry"	: {"type": "Point", "coordinates": [-3.185525, 55.943982]},
			"properties": {"marker-size": "medium", "location": "manliness.poem.cliff", "rgb-string": "#c0ff00", "marker-color": "#c0ff00", "marker-symbol": "lighthouse"}
			},
	{"type": "Feature",
			"geometry"	: {"type": "Point", "coordinates": [-3.184465, 55.944952]},
			"properties": {"marker-size": "medium", "location": "sports.topic.clocks", "rgb-string": "#ff4000", "marker-color": "#ff4000", "marker-symbol": "danger"}
			},
	{"type": "Feature",
			"geometry"	: {"type": "Point", "coordinates": [-3.185814, 55.94603]},
			"properties": {"marker-size": "medium", "location": "renew.slows.basket", "rgb-string": "#ff8000", "marker-color": "#ff8000", "marker-symbol": "danger"}
			},
	{"type": "Feature",
			"geometry"	: {"type": "Point", "coordinates": [-3.186922, 55.945437]},
			"properties": {"marker-size": "medium", "location": "spent.spoon.bolt", "rgb-string": "#ff4000", "marker-color": "#ff4000", "marker-symbol": "danger"}
			},
	{"type": "Feature",
			"geometry"	: {"type": "Point", "coordinates": [-3.18856, 55.946057]},
			"properties": {"marker-size": "medium", "location": "boost.radar.stress", "rgb-string": "#ff4000", "marker-color": "#ff4000", "marker-symbol": "danger"}
			},
	{"type": "Feature",
			"geometry"	: {"type": "Point", "coordinates": [-3.189379, 55.945949]},
			"properties": {"marker-size": "medium", "location": "coherent.saints.stuck", "rgb-string": "#ff0000", "marker-color": "#ff0000", "marker-symbol": "danger"}
			},
	{"type": "Feature",
			"geometry"	: {"type": "Point", "coordinates": [-3.191065, 55.944709]},
			"properties": {"marker-size": "medium", "location": "estate.gave.votes", "rgb-string": "#40ff00", "marker-color": "#40ff00", "marker-symbol": "lighthouse"}
			},
	{"type": "Feature",
			"geometry"	: {"type": "Point", "coordinates": [-3.192221, 55.945114]},
			"properties": {"marker-size": "medium", "location": "useful.hike.trades", "rgb-string": "#ffc000", "marker-color": "#ffc000", "marker-symbol": "danger"}
			},
	{"type": "Feature",
			"geometry"	: {"type": "Point", "coordinates": [-3.191065, 55.94444]},
			"properties": {"marker-size": "medium", "location": "paying.crowd.weep", "rgb-string": "#000000", "marker-color": "#000000", "marker-symbol": "cross"}
			},
	{"type": "Feature",
			"geometry"	: {"type": "Point", "coordinates": [-3.191113, 55.94417]},
			"properties": {"marker-size": "medium", "location": "hills.giant.crate", "rgb-string": "#00ff00", "marker-color": "#00ff00", "marker-symbol": "lighthouse"}
			},
	{"type": "Feature",
			"geometry"	: {"type": "Point", "coordinates": [-3.191113, 55.943631]},
			"properties": {"marker-size": "medium", "location": "loaf.cheer.slave", "rgb-string": "#00ff00", "marker-color": "#00ff00", "marker-symbol": "lighthouse"}
			},
	{"type": "Feature",
			"geometry"	: {"type": "Point", "coordinates": [-3.191161, 55.943065]},
			"properties": {"marker-size": "medium", "location": "else.urban.museum", "rgb-string": "#000000", "marker-color": "#000000", "marker-symbol": "cross"}
			},
	{"type": "Feature",
			"geometry"	: {"type": "Point", "coordinates": [-3.189908, 55.942904]},
			"properties": {"marker-size": "medium", "location": "second.launch.miles", "rgb-string": "#000000", "marker-color": "#000000", "marker-symbol": "cross"}
			},
	{"type": "Feature",
			"geometry"	: {"type": "Point", "coordinates": [-3.189764, 55.942661]},
			"properties": {"marker-size": "medium", "location": "hooked.shine.third", "rgb-string": "#40ff00", "marker-color": "#40ff00", "marker-symbol": "lighthouse"}
			},
	{"type": "Feature",
			"geometry"	: {"type": "Point", "coordinates": [-3.189234, 55.943012]},
			"properties": {"marker-size": "medium", "location": "region.passes.pencil", "rgb-string": "#40ff00", "marker-color": "#40ff00", "marker-symbol": "lighthouse"}
			},
	{"type": "Feature",
			"geometry"	: {"type": "Point", "coordinates": [-3.188608, 55.943119]},
			"properties": {"marker-size": "medium", "location": "groups.ideas.script", "rgb-string": "#80ff00", "marker-color": "#80ff00", "marker-symbol": "lighthouse"}
			},
	{"type": "Feature",
			"geometry"	: {"type": "Point", "coordinates": [-3.188945, 55.943928]},
			"properties": {"marker-size": "medium", "location": "noted.friday.jams", "rgb-string": "#40ff00", "marker-color": "#40ff00", "marker-symbol": "lighthouse"}
			},
	{"type": "Feature",
			"geometry"	: {"type": "Point", "coordinates": [-3.189138, 55.944197]},
			"properties": {"marker-size": "medium", "location": "spoon.invest.every", "rgb-string": "#40ff00", "marker-color": "#40ff00", "marker-symbol": "lighthouse"}
			},
	{"type": "Feature",
			"geometry"	: {"type": "Point", "coordinates": [-3.189812, 55.94409]},
			"properties": {"marker-size": "medium", "location": "cliff.asleep.wedge", "rgb-string": "#40ff00", "marker-color": "#40ff00", "marker-symbol": "lighthouse"}
			},
	{"type": "Feature",
			"geometry"	: {"type": "Point", "coordinates": [-3.188801, 55.945437]},
			"properties": {"marker-size": "medium", "location": "shady.soft.phones", "rgb-string": "#ffc000", "marker-color": "#ffc000", "marker-symbol": "danger"}
			},
	{"type": "Feature",
			"geometry"	: {"type": "Point", "coordinates": [-3.18803, 55.944979]},
			"properties": {"marker-size": "medium", "location": "agents.mile.crib", "rgb-string": "#c0ff00", "marker-color": "#c0ff00", "marker-symbol": "lighthouse"}
			},
	{"type": "Feature",
			"geometry"	: {"type": "Point", "coordinates": [-3.187789, 55.944386]},
			"properties": {"marker-size": "medium", "location": "thank.salsa.brain", "rgb-string": "#80ff00", "marker-color": "#80ff00", "marker-symbol": "lighthouse"}
			},
	{"type": "Feature",
			"geometry"	: {"type": "Point", "coordinates": [-3.187018, 55.943982]},
			"properties": {"marker-size": "medium", "location": "renew.ears.tend", "rgb-string": "#c0ff00", "marker-color": "#c0ff00", "marker-symbol": "lighthouse"}
			},
	{"type": "Feature",
			"geometry"	: {"type": "Point", "coordinates": [-3.187211, 55.943335]},
			"properties": {"marker-size": "medium", "location": "scale.chair.kinds", "rgb-string": "#ffc000", "marker-color": "#ffc000", "marker-symbol": "danger"}
			},
	{"type": "Feature",
			"geometry"	: {"type": "Point", "coordinates": [-3.187018, 55.942877]},
			"properties": {"marker-size": "medium", "location": "valve.elaborate.fortunate", "rgb-string": "#000000", "marker-color": "#000000", "marker-symbol": "cross"}
			},
	{"type": "Feature",
			"geometry"	: {"type": "Point", "coordinates": [-3.18697, 55.942688]},
			"properties": {"marker-size": "medium", "location": "strut.river.surely", "rgb-string": "#ffc000", "marker-color": "#ffc000", "marker-symbol": "danger"}
			},
	{"type": "Feature",
			"geometry"	: {"type": "Point", "coordinates": [-3.186344, 55.942958]},
			"properties": {"marker-size": "medium", "location": "hers.banks.goat", "rgb-string": "#ffc000", "marker-color": "#ffc000", "marker-symbol": "danger"}
			},
	{"type": "Feature",
			"geometry"	: {"type": "Point", "coordinates": [-3.186248, 55.942796]},
			"properties": {"marker-size": "medium", "location": "under.retire.bump", "rgb-string": "#ff0000", "marker-color": "#ff0000", "marker-symbol": "danger"}
			},
	{"type": "Feature",
			"geometry"	: {"type": "Point", "coordinates": [-3.185573, 55.942877]},
			"properties": {"marker-size": "medium", "location": "dent.shins.cycle", "rgb-string": "#ff0000", "marker-color": "#ff0000", "marker-symbol": "danger"}
			},
	{"type": "Feature",
			"geometry"	: {"type": "Point", "coordinates": [-3.185621, 55.943065]},
			"properties": {"marker-size": "medium", "location": "toned.deflection.bland", "rgb-string": "#ffc000", "marker-color": "#ffc000", "marker-symbol": "danger"}
			},
	{"type": "Feature",
			"geometry"	: {"type": "Point", "coordinates": [-3.184754, 55.943012]},
			"properties": {"marker-size": "medium", "location": "courier.assume.bill", "rgb-string": "#ff4000", "marker-color": "#ff4000", "marker-symbol": "danger"}
			},
	{"type": "Feature",
			"geometry"	: {"type": "Point", "coordinates": [-3.184803, 55.943173]},
			"properties": {"marker-size": "medium", "location": "brings.remedy.latter", "rgb-string": "#000000", "marker-color": "#000000", "marker-symbol": "cross"}
			},
	{"type": "Feature",
			"geometry": {"type": "LineString",
				"coordinates": [
				[-3.188396, 55.944425],[-3.1881140922137643, 55.944322393957],[-3.1878321844275286, 55.944219787914],[-3.187550276641293, 55.944117181871],[-3.187254834315389, 55.9440650874177],[-3.186959391989485, 55.944012992964396],[-3.1866639496635814, 55.943960898511094],[-3.1863685073376775, 55.94390880405779],[-3.1860730650117737, 55.94385670960449],[-3.18577762268587, 55.94380461515119],[-3.185482180359966, 55.943752520697885],[-3.185186738034062, 55.94370042624458],[-3.185379574316968, 55.94393023957752],[-3.185186738034062, 55.944160052910455],[-3.1849939017511564, 55.94438986624339],[-3.1848010654682506, 55.94461967957633],[-3.184608229185345, 55.94484949290926],[-3.1848380425182805, 55.94504232919217],[-3.1850308788011863, 55.945272142525106],[-3.185260692134122, 55.94546497880801],[-3.185453528417028, 55.94569479214095],[-3.1856833417499635, 55.945887628423854],[-3.1859787840758673, 55.94583553397055],[-3.186274226401771, 55.94578343951725],[-3.186569668727675, 55.94573134506395],[-3.186865111053579, 55.945679250610645],[-3.1867151110535787, 55.94541944298951],[-3.1869970188398145, 55.94552204903251],[-3.18727892662605, 55.94562465507551],[-3.187560834412286, 55.94572726111851],[-3.1878427421985216, 55.945829867161514],[-3.1881246499847573, 55.945932473204515],[-3.188406557770993, 55.946035079247515],[-3.188702000096897, 55.94598298479421],[-3.189002000096897, 55.94598298479421],[-3.189297442422801, 55.94593089034091],[-3.1895572500439364, 55.94578089034091],[-3.189787063376872, 55.94558805405801],[-3.1900468709980077, 55.94543805405801],[-3.1902766843309434, 55.9452452177751],[-3.190536491952079, 55.945095217775105],[-3.1907663052850146, 55.9449023814922],[-3.19102611290615, 55.9447523814922],[-3.191321555232054, 55.9448044759455],[-3.191616997557958, 55.944856570398805],[-3.1918989053441935, 55.944959176441806],[-3.192158712965329, 55.945109176441804],[-3.1918989053441935, 55.944959176441806],[-3.191639097723058, 55.94480917644181],[-3.1913792901019225, 55.94465917644181],[-3.191119482480787, 55.94450917644181],[-3.191067388027487, 55.944213734115905],[-3.191119482480787, 55.94391829179],[-3.191067388027487, 55.94362284946409],[-3.191119482480787, 55.943327407138185],[-3.191171576934087, 55.94303196481228],[-3.1908715769340867, 55.94303196481228],[-3.1905715769340866, 55.94303196481228],[-3.1902715769340864, 55.94303196481228],[-3.189971576934086, 55.94303196481228],[-3.189821576934086, 55.94277215719114],[-3.1895396691478504, 55.942874763234144],[-3.1892577613616147, 55.942977369277145],[-3.188962319035711, 55.94302946373045],[-3.188666876709807, 55.94308155818375],[-3.1889487844960427, 55.94318416422675],[-3.1892306922822784, 55.94328677026975],[-3.1889352499563746, 55.94333886472305],[-3.18919505757751, 55.94348886472305],[-3.1888996152516063, 55.94354095917635],[-3.189092451534512, 55.94377077250929],[-3.188792451534512, 55.94377077250929],[-3.1889852878174176, 55.944000585842225],[-3.1891781241003234, 55.94423039917516],[-3.1894735664262273, 55.94417830472186],[-3.189769008752131, 55.94412621026856],[-3.1895761724692253, 55.94435602360149],[-3.1893833361863195, 55.94458583693443],[-3.1892333361863194, 55.94484564455556],[-3.1890404999034137, 55.9450754578885],[-3.1888904999034136, 55.945335265509634],[-3.1886976636205078, 55.9451054521767],[-3.188504827337602, 55.94487563884376],[-3.1882450197164665, 55.944725638843764],[-3.1882971141697665, 55.94502108116967],[-3.1880673008368308, 55.944828244886764],[-3.1879173008368307, 55.94456843726563],[-3.187724464553925, 55.944338623932694],[-3.1874646569327894, 55.944188623932696],[-3.1871827491465536, 55.944086017889695],[-3.186952935813618, 55.94389318160679],[-3.1872348435998537, 55.94379057556379],[-3.1870848435998536, 55.943530767942654],[-3.1873802859257574, 55.94347867348935],[-3.1871504725928217, 55.943285837206446],[-3.1870004725928216, 55.94302602958531],[-3.1868504725928215, 55.94276622196418],[-3.186568564806586, 55.94286882800718],[-3.18628665702035, 55.94297143405018],[-3.18633875147365, 55.94267599172427],[-3.1860433091477462, 55.942728086177574],[-3.1857614013615105, 55.942830692220575],[-3.1856114013615104, 55.94309049984171],[-3.1853294935752747, 55.94298789379871],[-3.185034051249371, 55.94303998825201],[-3.1847340512493707, 55.94303998825201],[-3.184884051249371, 55.943299795873145],[-3.1851659590356065, 55.943402401916146],[-3.1854478668218422, 55.943505007959146],[-3.185729774608078, 55.94360761400215],[-3.1860116823943136, 55.94371022004515],[-3.1862935901805494, 55.94381282608815],[-3.186575497966785, 55.94391543213115],[-3.186857405753021, 55.94401803817415],[-3.1871528480789246, 55.94407013262745],[-3.1874347558651603, 55.94417273867045],[-3.187716663651396, 55.94427534471345],[-3.1879985714376318, 55.944377950756454],[-3.1882804792238675, 55.944480556799455]
				]
			},"properties":{
		}
	}
		
	]
}