{"type": "FeatureCollection",
	"features"	: [
	{"type": "Feature",
			"geometry"	: {"type": "Polygon", "coordinates": [[[-3.1871804594993587, 55.94448750356385],[-3.187042325735092, 55.944193856370475],[-3.1869766116142273, 55.94420361961219],[-3.186897486448288, 55.94404815847112],[-3.186330199241638, 55.94413227278919],[-3.186405301094055, 55.944296745793935],[-3.1863033771514893, 55.944311015108454],[-3.1863395869731903, 55.94437109637507],[-3.186409324407577, 55.94436208419099],[-3.186425417661667, 55.944397381899876],[-3.186226934194565, 55.94442366740687],[-3.1863945722579956, 55.94457011490493],[-3.1864307820796967, 55.94458588614092],[-3.186488449573517, 55.94459189422912],[-3.1871804594993587, 55.94448750356385],[-3.1871804594993587, 55.94448750356385]]]},
		"properties": {"fill-opacity": 0.5, "fill": "#ff0000"}},
	{"type": "Feature",
			"geometry"	: {"type": "Polygon", "coordinates": [[[-3.186697661876678, 55.943360216655655],[-3.186556175351143, 55.94306656091478],[-3.186345621943474, 55.943098480124895],[-3.1864864379167557, 55.94339251114087],[-3.186697661876678, 55.943360216655655],[-3.186697661876678, 55.943360216655655]]]},
		"properties": {"fill-opacity": 0.5, "fill": "#ff0000"}},
	{"type": "Feature",
			"geometry"	: {"type": "Polygon", "coordinates": [[[-3.189708441495895, 55.94280820210462],[-3.1894750893115997, 55.94233128523903],[-3.1882721185684204, 55.942514542178216],[-3.1885054707527156, 55.94299295887116],[-3.189708441495895, 55.94280820210462],[-3.189708441495895, 55.94280820210462]]]},
		"properties": {"fill-opacity": 0.5, "fill": "#ff0000"}},
	{"type": "Feature",
			"geometry"	: {"type": "Polygon", "coordinates": [[[-3.188078999519348, 55.94541799748307],[-3.187633752822876, 55.94458288209647],[-3.1869176030158997, 55.94470154167527],[-3.187046349048614, 55.94494186375901],[-3.186909556388855, 55.944964393877896],[-3.18678081035614, 55.94481569485101],[-3.1865662336349487, 55.94487727734554],[-3.187113404273987, 55.94555317633777],[-3.1872957944869995, 55.945505112799054],[-3.187832236289978, 55.945460053177314],[-3.188078999519348, 55.94541799748307],[-3.188078999519348, 55.94541799748307]]]},
		"properties": {"fill-opacity": 0.5, "fill": "#ff0000"}},
	{"type": "Feature",
			"geometry"	: {"type": "Polygon", "coordinates": [[[-3.184319, 55.946233], [-3.184319, 55.942617], [-3.192473, 55.942617], [-3.192473, 55.946233]]]},
		"properties": {"fill-opacity": 0}},
	{"type": "Feature",
			"geometry"	: {"type": "Point", "coordinates": [-3.189138, 55.944197]},
			"properties": {"marker-size": "medium", "location": "spoon.invest.every", "rgb-string": "#40ff00", "marker-color": "#40ff00", "marker-symbol": "lighthouse"}
			},
	{"type": "Feature",
			"geometry"	: {"type": "Point", "coordinates": [-3.189812, 55.94409]},
			"properties": {"marker-size": "medium", "location": "cliff.asleep.wedge", "rgb-string": "#40ff00", "marker-color": "#40ff00", "marker-symbol": "lighthouse"}
			},
	{"type": "Feature",
			"geometry"	: {"type": "Point", "coordinates": [-3.190294, 55.943712]},
			"properties": {"marker-size": "medium", "location": "sculpture.shot.melon", "rgb-string": "#40ff00", "marker-color": "#40ff00", "marker-symbol": "lighthouse"}
			},
	{"type": "Feature",
			"geometry"	: {"type": "Point", "coordinates": [-3.191161, 55.943065]},
			"properties": {"marker-size": "medium", "location": "else.urban.museum", "rgb-string": "#00ff00", "marker-color": "#00ff00", "marker-symbol": "lighthouse"}
			},
	{"type": "Feature",
			"geometry"	: {"type": "Point", "coordinates": [-3.191161, 55.942742]},
			"properties": {"marker-size": "medium", "location": "along.spill.limp", "rgb-string": "#00ff00", "marker-color": "#00ff00", "marker-symbol": "lighthouse"}
			},
	{"type": "Feature",
			"geometry"	: {"type": "Point", "coordinates": [-3.190727, 55.943092]},
			"properties": {"marker-size": "medium", "location": "relate.chill.vest", "rgb-string": "#00ff00", "marker-color": "#00ff00", "marker-symbol": "lighthouse"}
			},
	{"type": "Feature",
			"geometry"	: {"type": "Point", "coordinates": [-3.191161, 55.943362]},
			"properties": {"marker-size": "medium", "location": "meal.feed.large", "rgb-string": "#40ff00", "marker-color": "#40ff00", "marker-symbol": "lighthouse"}
			},
	{"type": "Feature",
			"geometry"	: {"type": "Point", "coordinates": [-3.191113, 55.943901]},
			"properties": {"marker-size": "medium", "location": "spicy.bunch.shady", "rgb-string": "#00ff00", "marker-color": "#00ff00", "marker-symbol": "lighthouse"}
			},
	{"type": "Feature",
			"geometry"	: {"type": "Point", "coordinates": [-3.191065, 55.94444]},
			"properties": {"marker-size": "medium", "location": "paying.crowd.weep", "rgb-string": "#40ff00", "marker-color": "#40ff00", "marker-symbol": "lighthouse"}
			},
	{"type": "Feature",
			"geometry"	: {"type": "Point", "coordinates": [-3.191161, 55.945976]},
			"properties": {"marker-size": "medium", "location": "simple.rust.audio", "rgb-string": "#000000", "marker-color": "#000000", "marker-symbol": "cross"}
			},
	{"type": "Feature",
			"geometry"	: {"type": "Point", "coordinates": [-3.188897, 55.945707]},
			"properties": {"marker-size": "medium", "location": "stops.else.chats", "rgb-string": "#ff0000", "marker-color": "#ff0000", "marker-symbol": "danger"}
			},
	{"type": "Feature",
			"geometry"	: {"type": "Point", "coordinates": [-3.188319, 55.945518]},
			"properties": {"marker-size": "medium", "location": "skills.less.herb", "rgb-string": "#000000", "marker-color": "#000000", "marker-symbol": "cross"}
			},
	{"type": "Feature",
			"geometry"	: {"type": "Point", "coordinates": [-3.187307, 55.944494]},
			"properties": {"marker-size": "medium", "location": "only.fairly.rift", "rgb-string": "#ffc000", "marker-color": "#ffc000", "marker-symbol": "danger"}
			},
	{"type": "Feature",
			"geometry"	: {"type": "Point", "coordinates": [-3.187789, 55.944386]},
			"properties": {"marker-size": "medium", "location": "thank.salsa.brain", "rgb-string": "#40ff00", "marker-color": "#40ff00", "marker-symbol": "lighthouse"}
			},
	{"type": "Feature",
			"geometry"	: {"type": "Point", "coordinates": [-3.188271, 55.944063]},
			"properties": {"marker-size": "medium", "location": "rush.crown.link", "rgb-string": "#00ff00", "marker-color": "#00ff00", "marker-symbol": "lighthouse"}
			},
	{"type": "Feature",
			"geometry"	: {"type": "Point", "coordinates": [-3.188126, 55.943793]},
			"properties": {"marker-size": "medium", "location": "cubs.trucks.help", "rgb-string": "#40ff00", "marker-color": "#40ff00", "marker-symbol": "lighthouse"}
			},
	{"type": "Feature",
			"geometry"	: {"type": "Point", "coordinates": [-3.188704, 55.943389]},
			"properties": {"marker-size": "medium", "location": "system.speak.guard", "rgb-string": "#00ff00", "marker-color": "#00ff00", "marker-symbol": "lighthouse"}
			},
	{"type": "Feature",
			"geometry"	: {"type": "Point", "coordinates": [-3.189764, 55.942661]},
			"properties": {"marker-size": "medium", "location": "hooked.shine.third", "rgb-string": "#40ff00", "marker-color": "#40ff00", "marker-symbol": "lighthouse"}
			},
	{"type": "Feature",
			"geometry"	: {"type": "Point", "coordinates": [-3.188608, 55.943119]},
			"properties": {"marker-size": "medium", "location": "groups.ideas.script", "rgb-string": "#40ff00", "marker-color": "#40ff00", "marker-symbol": "lighthouse"}
			},
	{"type": "Feature",
			"geometry"	: {"type": "Point", "coordinates": [-3.18697, 55.942688]},
			"properties": {"marker-size": "medium", "location": "strut.river.surely", "rgb-string": "#ff4000", "marker-color": "#ff4000", "marker-symbol": "danger"}
			},
	{"type": "Feature",
			"geometry"	: {"type": "Point", "coordinates": [-3.187355, 55.943604]},
			"properties": {"marker-size": "medium", "location": "shut.stands.media", "rgb-string": "#80ff00", "marker-color": "#80ff00", "marker-symbol": "lighthouse"}
			},
	{"type": "Feature",
			"geometry"	: {"type": "Point", "coordinates": [-3.187018, 55.943982]},
			"properties": {"marker-size": "medium", "location": "renew.ears.tend", "rgb-string": "#80ff00", "marker-color": "#80ff00", "marker-symbol": "lighthouse"}
			},
	{"type": "Feature",
			"geometry"	: {"type": "Point", "coordinates": [-3.186103, 55.944251]},
			"properties": {"marker-size": "medium", "location": "organs.shape.fantastic", "rgb-string": "#ff4000", "marker-color": "#ff4000", "marker-symbol": "danger"}
			},
	{"type": "Feature",
			"geometry"	: {"type": "Point", "coordinates": [-3.186007, 55.943901]},
			"properties": {"marker-size": "medium", "location": "teams.mild.played", "rgb-string": "#ffc000", "marker-color": "#ffc000", "marker-symbol": "danger"}
			},
	{"type": "Feature",
			"geometry"	: {"type": "Point", "coordinates": [-3.185525, 55.943982]},
			"properties": {"marker-size": "medium", "location": "manliness.poem.cliff", "rgb-string": "#ffc000", "marker-color": "#ffc000", "marker-symbol": "danger"}
			},
	{"type": "Feature",
			"geometry"	: {"type": "Point", "coordinates": [-3.184947, 55.943443]},
			"properties": {"marker-size": "medium", "location": "sentences.sings.modern", "rgb-string": "#ffc000", "marker-color": "#ffc000", "marker-symbol": "danger"}
			},
	{"type": "Feature",
			"geometry"	: {"type": "Point", "coordinates": [-3.185236, 55.944575]},
			"properties": {"marker-size": "medium", "location": "acid.chair.butter", "rgb-string": "#ff8000", "marker-color": "#ff8000", "marker-symbol": "danger"}
			},
	{"type": "Feature",
			"geometry"	: {"type": "Point", "coordinates": [-3.184899, 55.944736]},
			"properties": {"marker-size": "medium", "location": "slide.leads.stores", "rgb-string": "#000000", "marker-color": "#000000", "marker-symbol": "cross"}
			},
	{"type": "Feature",
			"geometry"	: {"type": "Point", "coordinates": [-3.184513, 55.945302]},
			"properties": {"marker-size": "medium", "location": "settle.title.united", "rgb-string": "#ff4000", "marker-color": "#ff4000", "marker-symbol": "danger"}
			},
	{"type": "Feature",
			"geometry"	: {"type": "Point", "coordinates": [-3.185621, 55.945761]},
			"properties": {"marker-size": "medium", "location": "shed.desire.muddy", "rgb-string": "#ff4000", "marker-color": "#ff4000", "marker-symbol": "danger"}
			},
	{"type": "Feature",
			"geometry"	: {"type": "Point", "coordinates": [-3.185814, 55.94603]},
			"properties": {"marker-size": "medium", "location": "renew.slows.basket", "rgb-string": "#ff0000", "marker-color": "#ff0000", "marker-symbol": "danger"}
			},
	{"type": "Feature",
			"geometry"	: {"type": "Point", "coordinates": [-3.186296, 55.945761]},
			"properties": {"marker-size": "medium", "location": "posts.kicked.universally", "rgb-string": "#ff4000", "marker-color": "#ff4000", "marker-symbol": "danger"}
			},
	{"type": "Feature",
			"geometry"	: {"type": "Point", "coordinates": [-3.186729, 55.945168]},
			"properties": {"marker-size": "medium", "location": "dragon.bottle.crisp", "rgb-string": "#ffc000", "marker-color": "#ffc000", "marker-symbol": "danger"}
			},
	{"type": "Feature",
			"geometry": {"type": "LineString",
				"coordinates": [
				[-3.188396, 55.944425],[-3.188691442325904, 55.9443729055467],[-3.1889868846518077, 55.9443208110934],[-3.1892823269777115, 55.944268716640096],[-3.1895777693036154, 55.944216622186794],[-3.189807582636551, 55.94402378590389],[-3.1900373959694868, 55.94383094962098],[-3.1902672093024225, 55.943638113338075],[-3.190497022635358, 55.94344527705517],[-3.190726835968294, 55.94325244077226],[-3.1910087437545296, 55.94314983472926],[-3.191111349797527, 55.94286792694302],[-3.1909185135146214, 55.94309774027596],[-3.191111349797527, 55.943327553608896],[-3.191163444250827, 55.9436229959348],[-3.191111349797527, 55.94391843826071],[-3.191059255344227, 55.94421388058662],[-3.191111349797527, 55.94450932291252],[-3.191163444250827, 55.94480476523843],[-3.191111349797527, 55.94510020756434],[-3.191163444250827, 55.945395649890244],[-3.191111349797527, 55.94569109221615],[-3.191163444250827, 55.94598653454206],[-3.190863444250827, 55.94598653454206],[-3.190563444250827, 55.94598653454206],[-3.1902634442508266, 55.94598653454206],[-3.1899634442508265, 55.94598653454206],[-3.1896634442508263, 55.94598653454206],[-3.189363444250826, 55.94598653454206],[-3.1891336309178904, 55.94579369825915],[-3.1889038175849547, 55.945600861976246],[-3.1886038175849545, 55.945600861976246],[-3.1883038175849543, 55.945600861976246],[-3.188153817584954, 55.94534105435511],[-3.188003817584954, 55.94508124673398],[-3.187853817584954, 55.94482143911284],[-3.187703817584954, 55.94456163149171],[-3.18740837525905, 55.94461372594501],[-3.1871129329331462, 55.94466582039831],[-3.1868174906072424, 55.944717914851616],[-3.187099398393478, 55.944615308808615],[-3.187381306179714, 55.944512702765614],[-3.1876632139659495, 55.94441009672261],[-3.1879451217521853, 55.94430749067961],[-3.188227029538421, 55.94420488463661],[-3.188174935085121, 55.943909442310705],[-3.188474935085121, 55.943909442310705],[-3.188422840631821, 55.9436139999848],[-3.188718282957725, 55.943561905531496],[-3.189013725283629, 55.943509811078194],[-3.1893091676095326, 55.94345771662489],[-3.1896046099354365, 55.94340562217159],[-3.1896567043887365, 55.94311017984568],[-3.1897087988420365, 55.942814737519775],[-3.189426891055801, 55.942917343562776],[-3.189131448729897, 55.94296943801608],[-3.188836006403993, 55.94302153246938],[-3.1885405640780893, 55.94307362692268],[-3.1882451217521854, 55.94302153246938],[-3.1879496794262816, 55.94296943801608],[-3.187667771640046, 55.94286683197308],[-3.187372329314142, 55.942814737519775],[-3.1870904215279063, 55.942712131476775],[-3.1872404215279064, 55.94297193909791],[-3.187343027570904, 55.94325384688415],[-3.1874456336139017, 55.943535754670386],[-3.187150191287998, 55.94358784912369],[-3.187300191287998, 55.94384765674482],[-3.187004748962094, 55.943899751198124],[-3.1867093066361902, 55.943951845651426],[-3.1864273988499545, 55.94405445169443],[-3.186145491063719, 55.94415705773743],[-3.186093396610419, 55.94386161541152],[-3.185797954284515, 55.94391370986482],[-3.185502511958611, 55.943965804318125],[-3.1853096756757053, 55.94373599098519],[-3.1851168393927995, 55.94350617765225],[-3.1851689338460996, 55.94380161997816],[-3.1852210282993996, 55.94409706230407],[-3.1852731227526996, 55.944392504629974],[-3.1851231227526995, 55.94465231225111],[-3.1849731227526994, 55.94491211987224],[-3.1847433094197637, 55.94510495615515],[-3.184513496086828, 55.945297792438055],[-3.1847954038730637, 55.945400398481056],[-3.1850773116592994, 55.945503004524056],[-3.185337119280435, 55.945653004524054],[-3.1856190270666707, 55.945755610567055],[-3.1858118633495764, 55.94598542389999],[-3.1861073056754803, 55.94593332944669],[-3.186402748001384, 55.94588123499339],[-3.186350653548084, 55.94558579266748],[-3.1866506535480843, 55.94558579266748],[-3.186500653548084, 55.945325985046345],[-3.1867604611692197, 55.94547598504634],[-3.1866104611692196, 55.94521617742521],[-3.1868402745021553, 55.945409013708115],[-3.187100082123291, 55.94555901370811],[-3.187400082123291, 55.94555901370811],[-3.187695524449195, 55.94550691925481],[-3.1879909667750987, 55.94545482480151],[-3.1882728745613345, 55.94535221875851],[-3.1882207801080344, 55.9450567764326],[-3.1881686856547344, 55.944761334106694],[-3.1881165912014344, 55.94446589178079]
				]
			},"properties":{
		}
	}
		
	]
}