{"type": "FeatureCollection",
	"features"	: [
	{"type": "Feature",
			"geometry"	: {"type": "Polygon", "coordinates": [[[-3.1871804594993587, 55.94448750356385],[-3.187042325735092, 55.944193856370475],[-3.1869766116142273, 55.94420361961219],[-3.186897486448288, 55.94404815847112],[-3.186330199241638, 55.94413227278919],[-3.186405301094055, 55.944296745793935],[-3.1863033771514893, 55.944311015108454],[-3.1863395869731903, 55.94437109637507],[-3.186409324407577, 55.94436208419099],[-3.186425417661667, 55.944397381899876],[-3.186226934194565, 55.94442366740687],[-3.1863945722579956, 55.94457011490493],[-3.1864307820796967, 55.94458588614092],[-3.186488449573517, 55.94459189422912],[-3.1871804594993587, 55.94448750356385],[-3.1871804594993587, 55.94448750356385]]]},
		"properties": {"fill-opacity": 0.5, "fill": "#ff0000"}},
	{"type": "Feature",
			"geometry"	: {"type": "Polygon", "coordinates": [[[-3.186697661876678, 55.943360216655655],[-3.186556175351143, 55.94306656091478],[-3.186345621943474, 55.943098480124895],[-3.1864864379167557, 55.94339251114087],[-3.186697661876678, 55.943360216655655],[-3.186697661876678, 55.943360216655655]]]},
		"properties": {"fill-opacity": 0.5, "fill": "#ff0000"}},
	{"type": "Feature",
			"geometry"	: {"type": "Polygon", "coordinates": [[[-3.189708441495895, 55.94280820210462],[-3.1894750893115997, 55.94233128523903],[-3.1882721185684204, 55.942514542178216],[-3.1885054707527156, 55.94299295887116],[-3.189708441495895, 55.94280820210462],[-3.189708441495895, 55.94280820210462]]]},
		"properties": {"fill-opacity": 0.5, "fill": "#ff0000"}},
	{"type": "Feature",
			"geometry"	: {"type": "Polygon", "coordinates": [[[-3.188078999519348, 55.94541799748307],[-3.187633752822876, 55.94458288209647],[-3.1869176030158997, 55.94470154167527],[-3.187046349048614, 55.94494186375901],[-3.186909556388855, 55.944964393877896],[-3.18678081035614, 55.94481569485101],[-3.1865662336349487, 55.94487727734554],[-3.187113404273987, 55.94555317633777],[-3.1872957944869995, 55.945505112799054],[-3.187832236289978, 55.945460053177314],[-3.188078999519348, 55.94541799748307],[-3.188078999519348, 55.94541799748307]]]},
		"properties": {"fill-opacity": 0.5, "fill": "#ff0000"}},
	{"type": "Feature",
			"geometry"	: {"type": "Polygon", "coordinates": [[[-3.184319, 55.946233], [-3.184319, 55.942617], [-3.192473, 55.942617], [-3.192473, 55.946233]]]},
		"properties": {"fill-opacity": 0}},
	{"type": "Feature",
			"geometry"	: {"type": "Point", "coordinates": [-3.187885, 55.944709]},
			"properties": {"marker-size": "medium", "location": "hurt.green.filer", "rgb-string": "#c0ff00", "marker-color": "#c0ff00", "marker-symbol": "lighthouse"}
			},
	{"type": "Feature",
			"geometry"	: {"type": "Point", "coordinates": [-3.187307, 55.944494]},
			"properties": {"marker-size": "medium", "location": "only.fairly.rift", "rgb-string": "#ffc000", "marker-color": "#ffc000", "marker-symbol": "danger"}
			},
	{"type": "Feature",
			"geometry"	: {"type": "Point", "coordinates": [-3.186537, 55.944925]},
			"properties": {"marker-size": "medium", "location": "laws.merit.bleak", "rgb-string": "#000000", "marker-color": "#000000", "marker-symbol": "cross"}
			},
	{"type": "Feature",
			"geometry"	: {"type": "Point", "coordinates": [-3.185621, 55.945761]},
			"properties": {"marker-size": "medium", "location": "shed.desire.muddy", "rgb-string": "#ff0000", "marker-color": "#ff0000", "marker-symbol": "danger"}
			},
	{"type": "Feature",
			"geometry"	: {"type": "Point", "coordinates": [-3.185332, 55.946138]},
			"properties": {"marker-size": "medium", "location": "prime.rent.silk", "rgb-string": "#ff4000", "marker-color": "#ff4000", "marker-symbol": "danger"}
			},
	{"type": "Feature",
			"geometry"	: {"type": "Point", "coordinates": [-3.185043, 55.945868]},
			"properties": {"marker-size": "medium", "location": "rider.aura.bulb", "rgb-string": "#000000", "marker-color": "#000000", "marker-symbol": "cross"}
			},
	{"type": "Feature",
			"geometry"	: {"type": "Point", "coordinates": [-3.184513, 55.945302]},
			"properties": {"marker-size": "medium", "location": "settle.title.united", "rgb-string": "#ff8000", "marker-color": "#ff8000", "marker-symbol": "danger"}
			},
	{"type": "Feature",
			"geometry"	: {"type": "Point", "coordinates": [-3.184899, 55.944736]},
			"properties": {"marker-size": "medium", "location": "slide.leads.stores", "rgb-string": "#ffc000", "marker-color": "#ffc000", "marker-symbol": "danger"}
			},
	{"type": "Feature",
			"geometry"	: {"type": "Point", "coordinates": [-3.185525, 55.943982]},
			"properties": {"marker-size": "medium", "location": "manliness.poem.cliff", "rgb-string": "#c0ff00", "marker-color": "#c0ff00", "marker-symbol": "lighthouse"}
			},
	{"type": "Feature",
			"geometry"	: {"type": "Point", "coordinates": [-3.184658, 55.943874]},
			"properties": {"marker-size": "medium", "location": "rider.mile.lime", "rgb-string": "#000000", "marker-color": "#000000", "marker-symbol": "cross"}
			},
	{"type": "Feature",
			"geometry"	: {"type": "Point", "coordinates": [-3.184803, 55.943173]},
			"properties": {"marker-size": "medium", "location": "brings.remedy.latter", "rgb-string": "#ff8000", "marker-color": "#ff8000", "marker-symbol": "danger"}
			},
	{"type": "Feature",
			"geometry"	: {"type": "Point", "coordinates": [-3.184754, 55.943012]},
			"properties": {"marker-size": "medium", "location": "courier.assume.bill", "rgb-string": "#ff4000", "marker-color": "#ff4000", "marker-symbol": "danger"}
			},
	{"type": "Feature",
			"geometry"	: {"type": "Point", "coordinates": [-3.186248, 55.942796]},
			"properties": {"marker-size": "medium", "location": "under.retire.bump", "rgb-string": "#ff4000", "marker-color": "#ff4000", "marker-symbol": "danger"}
			},
	{"type": "Feature",
			"geometry"	: {"type": "Point", "coordinates": [-3.187018, 55.942877]},
			"properties": {"marker-size": "medium", "location": "valve.elaborate.fortunate", "rgb-string": "#ff4000", "marker-color": "#ff4000", "marker-symbol": "danger"}
			},
	{"type": "Feature",
			"geometry"	: {"type": "Point", "coordinates": [-3.187211, 55.943335]},
			"properties": {"marker-size": "medium", "location": "scale.chair.kinds", "rgb-string": "#ff8000", "marker-color": "#ff8000", "marker-symbol": "danger"}
			},
	{"type": "Feature",
			"geometry"	: {"type": "Point", "coordinates": [-3.187355, 55.943604]},
			"properties": {"marker-size": "medium", "location": "shut.stands.media", "rgb-string": "#c0ff00", "marker-color": "#c0ff00", "marker-symbol": "lighthouse"}
			},
	{"type": "Feature",
			"geometry"	: {"type": "Point", "coordinates": [-3.1875, 55.943874]},
			"properties": {"marker-size": "medium", "location": "begins.spider.drips", "rgb-string": "#000000", "marker-color": "#000000", "marker-symbol": "cross"}
			},
	{"type": "Feature",
			"geometry"	: {"type": "Point", "coordinates": [-3.187645, 55.944143]},
			"properties": {"marker-size": "medium", "location": "bound.ends.matter", "rgb-string": "#80ff00", "marker-color": "#80ff00", "marker-symbol": "lighthouse"}
			},
	{"type": "Feature",
			"geometry"	: {"type": "Point", "coordinates": [-3.188126, 55.943793]},
			"properties": {"marker-size": "medium", "location": "cubs.trucks.help", "rgb-string": "#40ff00", "marker-color": "#40ff00", "marker-symbol": "lighthouse"}
			},
	{"type": "Feature",
			"geometry"	: {"type": "Point", "coordinates": [-3.187837, 55.943227]},
			"properties": {"marker-size": "medium", "location": "gums.clock.modes", "rgb-string": "#80ff00", "marker-color": "#80ff00", "marker-symbol": "lighthouse"}
			},
	{"type": "Feature",
			"geometry"	: {"type": "Point", "coordinates": [-3.188608, 55.943119]},
			"properties": {"marker-size": "medium", "location": "groups.ideas.script", "rgb-string": "#40ff00", "marker-color": "#40ff00", "marker-symbol": "lighthouse"}
			},
	{"type": "Feature",
			"geometry"	: {"type": "Point", "coordinates": [-3.189523, 55.943551]},
			"properties": {"marker-size": "medium", "location": "cars.attend.hotels", "rgb-string": "#40ff00", "marker-color": "#40ff00", "marker-symbol": "lighthouse"}
			},
	{"type": "Feature",
			"geometry"	: {"type": "Point", "coordinates": [-3.189619, 55.94382]},
			"properties": {"marker-size": "medium", "location": "burn.spot.across", "rgb-string": "#40ff00", "marker-color": "#40ff00", "marker-symbol": "lighthouse"}
			},
	{"type": "Feature",
			"geometry"	: {"type": "Point", "coordinates": [-3.190727, 55.943092]},
			"properties": {"marker-size": "medium", "location": "relate.chill.vest", "rgb-string": "#00ff00", "marker-color": "#00ff00", "marker-symbol": "lighthouse"}
			},
	{"type": "Feature",
			"geometry"	: {"type": "Point", "coordinates": [-3.191113, 55.943631]},
			"properties": {"marker-size": "medium", "location": "loaf.cheer.slave", "rgb-string": "#00ff00", "marker-color": "#00ff00", "marker-symbol": "lighthouse"}
			},
	{"type": "Feature",
			"geometry"	: {"type": "Point", "coordinates": [-3.190438, 55.943982]},
			"properties": {"marker-size": "medium", "location": "pump.wheels.hulk", "rgb-string": "#00ff00", "marker-color": "#00ff00", "marker-symbol": "lighthouse"}
			},
	{"type": "Feature",
			"geometry"	: {"type": "Point", "coordinates": [-3.191065, 55.94444]},
			"properties": {"marker-size": "medium", "location": "paying.crowd.weep", "rgb-string": "#80ff00", "marker-color": "#80ff00", "marker-symbol": "lighthouse"}
			},
	{"type": "Feature",
			"geometry"	: {"type": "Point", "coordinates": [-3.191065, 55.944709]},
			"properties": {"marker-size": "medium", "location": "estate.gave.votes", "rgb-string": "#80ff00", "marker-color": "#80ff00", "marker-symbol": "lighthouse"}
			},
	{"type": "Feature",
			"geometry"	: {"type": "Point", "coordinates": [-3.191883, 55.946003]},
			"properties": {"marker-size": "medium", "location": "stone.undulation.poems", "rgb-string": "#ffc000", "marker-color": "#ffc000", "marker-symbol": "danger"}
			},
	{"type": "Feature",
			"geometry"	: {"type": "Point", "coordinates": [-3.191161, 55.945976]},
			"properties": {"marker-size": "medium", "location": "simple.rust.audio", "rgb-string": "#ff8000", "marker-color": "#ff8000", "marker-symbol": "danger"}
			},
	{"type": "Feature",
			"geometry"	: {"type": "Point", "coordinates": [-3.18986, 55.945491]},
			"properties": {"marker-size": "medium", "location": "turkey.limit.ramp", "rgb-string": "#ffc000", "marker-color": "#ffc000", "marker-symbol": "danger"}
			},
	{"type": "Feature",
			"geometry"	: {"type": "Point", "coordinates": [-3.189186, 55.945087]},
			"properties": {"marker-size": "medium", "location": "number.exist.rate", "rgb-string": "#c0ff00", "marker-color": "#c0ff00", "marker-symbol": "lighthouse"}
			},
	{"type": "Feature",
			"geometry"	: {"type": "Point", "coordinates": [-3.188704, 55.945168]},
			"properties": {"marker-size": "medium", "location": "rooms.lamp.teach", "rgb-string": "#c0ff00", "marker-color": "#c0ff00", "marker-symbol": "lighthouse"}
			},
	{"type": "Feature",
			"geometry": {"type": "LineString",
				"coordinates": [
				[-3.188396, 55.944425],[-3.1881361923788645, 55.944575],[-3.187876384757729, 55.944725],[-3.1876465714247932, 55.94453216371709],[-3.1873511290988894, 55.94448006926379],[-3.187091321477754, 55.94463006926379],[-3.186809413691518, 55.94473267530679],[-3.1865496060703826, 55.944882675306786],[-3.186319792737447, 55.94507551158969],[-3.186089979404511, 55.9452683478726],[-3.1858971431216054, 55.945498161205535],[-3.1856673297886697, 55.94569099748844],[-3.185474493505764, 55.94592081082138],[-3.185324493505764, 55.94618061844251],[-3.185131657222858, 55.945950805109575],[-3.1849388209399523, 55.94572099177664],[-3.1847090076070166, 55.94552815549373],[-3.184516171324111, 55.9452983421608],[-3.184666171324111, 55.94503853453966],[-3.1848590076070167, 55.944808721206726],[-3.1850518438899225, 55.94457890787379],[-3.1852446801728282, 55.944349094540854],[-3.185437516455734, 55.94411928120792],[-3.1851556086694983, 55.94401667516492],[-3.1848737008832626, 55.94391406912192],[-3.1845782585573588, 55.943861974668614],[-3.1846808646003564, 55.943580066882376],[-3.184783470643354, 55.94329815909614],[-3.184731376190054, 55.94300271677023],[-3.185026818515958, 55.94295062231693],[-3.1853222608418617, 55.942898527863626],[-3.1856177031677655, 55.942846433410324],[-3.1859131454936693, 55.94279433895702],[-3.186208587819573, 55.942846433410324],[-3.186504030145477, 55.942898527863626],[-3.186799472471381, 55.942846433410324],[-3.1870949147972847, 55.942898527863626],[-3.1871470092505847, 55.94319397018953],[-3.187297009250585, 55.94345377781067],[-3.187447009250585, 55.9437135854318],[-3.1875496152935825, 55.94399549321804],[-3.187831523079818, 55.94389288717504],[-3.188113430866054, 55.94379028113204],[-3.187963430866054, 55.943530473510904],[-3.187860824823056, 55.943248565724666],[-3.18815626714896, 55.943196471271364],[-3.188451709474864, 55.94314437681806],[-3.1887336172610996, 55.94324698286106],[-3.1890155250473353, 55.94334958890406],[-3.189297432833571, 55.943452194947064],[-3.1895793406198067, 55.943554800990064],[-3.1896314350731068, 55.94385024331597],[-3.1898912426942423, 55.94370024331597],[-3.190121056027178, 55.94350740703307],[-3.1903808636483135, 55.94335740703307],[-3.1906106769812492, 55.94316457075016],[-3.190840490314185, 55.94335740703307],[-3.1910333265970907, 55.943587220366005],[-3.190773518975955, 55.943737220366],[-3.1905437056430195, 55.94393005664891],[-3.190773518975955, 55.944122892931816],[-3.190966355258861, 55.94435270626475],[-3.1910689613018586, 55.94463461405099],[-3.1912189613018587, 55.944894421672124],[-3.1913689613018588, 55.94515422929326],[-3.191518961301859, 55.94541403691439],[-3.191668961301859, 55.94567384453553],[-3.191818961301859, 55.94593365215666],[-3.191518961301859, 55.94593365215666],[-3.191223518975955, 55.94598574660996],[-3.1909416111897193, 55.94588314056696],[-3.1906597034034836, 55.94578053452396],[-3.190377795617248, 55.94567792848096],[-3.190095887831012, 55.94557532243796],[-3.1898139800447765, 55.94547271639496],[-3.189554172423641, 55.94532271639496],[-3.1892943648025054, 55.945172716394964],[-3.1889989224766015, 55.94512062194166],[-3.1887034801506977, 55.945172716394964],[-3.1886008741077, 55.944890808608726],[-3.1884982680647025, 55.94460890082249]
				]
			},"properties":{
		}
	}
		
	]
}