{"type": "FeatureCollection",
	"features"	: [
	{"type": "Feature",
			"geometry"	: {"type": "Point", "coordinates": [-3.187307, 55.944494]},
			"properties": {"marker-size": "medium", "location": "only.fairly.rift", "rgb-string": "#ffc000", "marker-color": "#ffc000", "marker-symbol": "danger"}
			},
	{"type": "Feature",
			"geometry"	: {"type": "Point", "coordinates": [-3.186729, 55.945168]},
			"properties": {"marker-size": "medium", "location": "dragon.bottle.crisp", "rgb-string": "#ffc000", "marker-color": "#ffc000", "marker-symbol": "danger"}
			},
	{"type": "Feature",
			"geometry"	: {"type": "Point", "coordinates": [-3.186103, 55.944251]},
			"properties": {"marker-size": "medium", "location": "organs.shape.fantastic", "rgb-string": "#ff4000", "marker-color": "#ff4000", "marker-symbol": "danger"}
			},
	{"type": "Feature",
			"geometry"	: {"type": "Point", "coordinates": [-3.186007, 55.943901]},
			"properties": {"marker-size": "medium", "location": "teams.mild.played", "rgb-string": "#ffc000", "marker-color": "#ffc000", "marker-symbol": "danger"}
			},
	{"type": "Feature",
			"geometry"	: {"type": "Point", "coordinates": [-3.185525, 55.943982]},
			"properties": {"marker-size": "medium", "location": "manliness.poem.cliff", "rgb-string": "#ffc000", "marker-color": "#ffc000", "marker-symbol": "danger"}
			},
	{"type": "Feature",
			"geometry"	: {"type": "Point", "coordinates": [-3.184947, 55.943443]},
			"properties": {"marker-size": "medium", "location": "sentences.sings.modern", "rgb-string": "#ffc000", "marker-color": "#ffc000", "marker-symbol": "danger"}
			},
	{"type": "Feature",
			"geometry"	: {"type": "Point", "coordinates": [-3.185236, 55.944575]},
			"properties": {"marker-size": "medium", "location": "acid.chair.butter", "rgb-string": "#ff8000", "marker-color": "#ff8000", "marker-symbol": "danger"}
			},
	{"type": "Feature",
			"geometry"	: {"type": "Point", "coordinates": [-3.184899, 55.944736]},
			"properties": {"marker-size": "medium", "location": "slide.leads.stores", "rgb-string": "#000000", "marker-color": "#000000", "marker-symbol": "cross"}
			},
	{"type": "Feature",
			"geometry"	: {"type": "Point", "coordinates": [-3.184513, 55.945302]},
			"properties": {"marker-size": "medium", "location": "settle.title.united", "rgb-string": "#ff4000", "marker-color": "#ff4000", "marker-symbol": "danger"}
			},
	{"type": "Feature",
			"geometry"	: {"type": "Point", "coordinates": [-3.185621, 55.945761]},
			"properties": {"marker-size": "medium", "location": "shed.desire.muddy", "rgb-string": "#ff4000", "marker-color": "#ff4000", "marker-symbol": "danger"}
			},
	{"type": "Feature",
			"geometry"	: {"type": "Point", "coordinates": [-3.185814, 55.94603]},
			"properties": {"marker-size": "medium", "location": "renew.slows.basket", "rgb-string": "#ff0000", "marker-color": "#ff0000", "marker-symbol": "danger"}
			},
	{"type": "Feature",
			"geometry"	: {"type": "Point", "coordinates": [-3.186296, 55.945761]},
			"properties": {"marker-size": "medium", "location": "posts.kicked.universally", "rgb-string": "#ff4000", "marker-color": "#ff4000", "marker-symbol": "danger"}
			},
	{"type": "Feature",
			"geometry"	: {"type": "Point", "coordinates": [-3.188319, 55.945518]},
			"properties": {"marker-size": "medium", "location": "skills.less.herb", "rgb-string": "#000000", "marker-color": "#000000", "marker-symbol": "cross"}
			},
	{"type": "Feature",
			"geometry"	: {"type": "Point", "coordinates": [-3.188897, 55.945707]},
			"properties": {"marker-size": "medium", "location": "stops.else.chats", "rgb-string": "#ff0000", "marker-color": "#ff0000", "marker-symbol": "danger"}
			},
	{"type": "Feature",
			"geometry"	: {"type": "Point", "coordinates": [-3.189138, 55.944197]},
			"properties": {"marker-size": "medium", "location": "spoon.invest.every", "rgb-string": "#40ff00", "marker-color": "#40ff00", "marker-symbol": "lighthouse"}
			},
	{"type": "Feature",
			"geometry"	: {"type": "Point", "coordinates": [-3.189812, 55.94409]},
			"properties": {"marker-size": "medium", "location": "cliff.asleep.wedge", "rgb-string": "#40ff00", "marker-color": "#40ff00", "marker-symbol": "lighthouse"}
			},
	{"type": "Feature",
			"geometry"	: {"type": "Point", "coordinates": [-3.191161, 55.945976]},
			"properties": {"marker-size": "medium", "location": "simple.rust.audio", "rgb-string": "#000000", "marker-color": "#000000", "marker-symbol": "cross"}
			},
	{"type": "Feature",
			"geometry"	: {"type": "Point", "coordinates": [-3.191065, 55.94444]},
			"properties": {"marker-size": "medium", "location": "paying.crowd.weep", "rgb-string": "#40ff00", "marker-color": "#40ff00", "marker-symbol": "lighthouse"}
			},
	{"type": "Feature",
			"geometry"	: {"type": "Point", "coordinates": [-3.191113, 55.943901]},
			"properties": {"marker-size": "medium", "location": "spicy.bunch.shady", "rgb-string": "#00ff00", "marker-color": "#00ff00", "marker-symbol": "lighthouse"}
			},
	{"type": "Feature",
			"geometry"	: {"type": "Point", "coordinates": [-3.191161, 55.943362]},
			"properties": {"marker-size": "medium", "location": "meal.feed.large", "rgb-string": "#40ff00", "marker-color": "#40ff00", "marker-symbol": "lighthouse"}
			},
	{"type": "Feature",
			"geometry"	: {"type": "Point", "coordinates": [-3.191161, 55.942742]},
			"properties": {"marker-size": "medium", "location": "along.spill.limp", "rgb-string": "#00ff00", "marker-color": "#00ff00", "marker-symbol": "lighthouse"}
			},
	{"type": "Feature",
			"geometry"	: {"type": "Point", "coordinates": [-3.191161, 55.943065]},
			"properties": {"marker-size": "medium", "location": "else.urban.museum", "rgb-string": "#00ff00", "marker-color": "#00ff00", "marker-symbol": "lighthouse"}
			},
	{"type": "Feature",
			"geometry"	: {"type": "Point", "coordinates": [-3.190727, 55.943092]},
			"properties": {"marker-size": "medium", "location": "relate.chill.vest", "rgb-string": "#00ff00", "marker-color": "#00ff00", "marker-symbol": "lighthouse"}
			},
	{"type": "Feature",
			"geometry"	: {"type": "Point", "coordinates": [-3.190294, 55.943712]},
			"properties": {"marker-size": "medium", "location": "sculpture.shot.melon", "rgb-string": "#40ff00", "marker-color": "#40ff00", "marker-symbol": "lighthouse"}
			},
	{"type": "Feature",
			"geometry"	: {"type": "Point", "coordinates": [-3.189764, 55.942661]},
			"properties": {"marker-size": "medium", "location": "hooked.shine.third", "rgb-string": "#40ff00", "marker-color": "#40ff00", "marker-symbol": "lighthouse"}
			},
	{"type": "Feature",
			"geometry"	: {"type": "Point", "coordinates": [-3.188704, 55.943389]},
			"properties": {"marker-size": "medium", "location": "system.speak.guard", "rgb-string": "#00ff00", "marker-color": "#00ff00", "marker-symbol": "lighthouse"}
			},
	{"type": "Feature",
			"geometry"	: {"type": "Point", "coordinates": [-3.188608, 55.943119]},
			"properties": {"marker-size": "medium", "location": "groups.ideas.script", "rgb-string": "#40ff00", "marker-color": "#40ff00", "marker-symbol": "lighthouse"}
			},
	{"type": "Feature",
			"geometry"	: {"type": "Point", "coordinates": [-3.18697, 55.942688]},
			"properties": {"marker-size": "medium", "location": "strut.river.surely", "rgb-string": "#ff4000", "marker-color": "#ff4000", "marker-symbol": "danger"}
			},
	{"type": "Feature",
			"geometry"	: {"type": "Point", "coordinates": [-3.187355, 55.943604]},
			"properties": {"marker-size": "medium", "location": "shut.stands.media", "rgb-string": "#80ff00", "marker-color": "#80ff00", "marker-symbol": "lighthouse"}
			},
	{"type": "Feature",
			"geometry"	: {"type": "Point", "coordinates": [-3.187018, 55.943982]},
			"properties": {"marker-size": "medium", "location": "renew.ears.tend", "rgb-string": "#80ff00", "marker-color": "#80ff00", "marker-symbol": "lighthouse"}
			},
	{"type": "Feature",
			"geometry"	: {"type": "Point", "coordinates": [-3.187789, 55.944386]},
			"properties": {"marker-size": "medium", "location": "thank.salsa.brain", "rgb-string": "#40ff00", "marker-color": "#40ff00", "marker-symbol": "lighthouse"}
			},
	{"type": "Feature",
			"geometry"	: {"type": "Point", "coordinates": [-3.188126, 55.943793]},
			"properties": {"marker-size": "medium", "location": "cubs.trucks.help", "rgb-string": "#40ff00", "marker-color": "#40ff00", "marker-symbol": "lighthouse"}
			},
	{"type": "Feature",
			"geometry"	: {"type": "Point", "coordinates": [-3.188271, 55.944063]},
			"properties": {"marker-size": "medium", "location": "rush.crown.link", "rgb-string": "#00ff00", "marker-color": "#00ff00", "marker-symbol": "lighthouse"}
			},
	{"type": "Feature",
			"geometry": {"type": "LineString",
				"coordinates": [
				[-3.188396, 55.944425],[-3.188100557674096, 55.944477094453305],[-3.1878051153481923, 55.94452918890661],[-3.1875096730222885, 55.94458128335991],[-3.1872142306963847, 55.94463337781321],[-3.186918788370481, 55.944685472266514],[-3.186636880584245, 55.944788078309514],[-3.1863549727980094, 55.944890684352515],[-3.186547809080915, 55.94512049768545],[-3.186397809080915, 55.94486069006432],[-3.186247809080915, 55.94460088244318],[-3.1861452030379174, 55.944318974656944],[-3.1860425969949198, 55.944037066870706],[-3.1857425969949196, 55.944037066870706],[-3.1854425969949194, 55.944037066870706],[-3.1852497607120136, 55.94380725353777],[-3.185056924429108, 55.943577440204834],[-3.185109018882408, 55.94387288253074],[-3.185161113335708, 55.94416832485665],[-3.185213207789008, 55.944463767182555],[-3.1850632077890078, 55.94472357480369],[-3.1849132077890077, 55.94498338242482],[-3.184683394456072, 55.94517621870773],[-3.1844535811231363, 55.945369054990636],[-3.184735488909372, 55.945471661033636],[-3.1850173966956077, 55.94557426707664],[-3.1852993044818434, 55.94567687311964],[-3.1855947468077472, 55.94572896757294],[-3.185787583090653, 55.945958780905876],[-3.186083025416557, 55.945906686452574],[-3.1863784677424607, 55.94585459199927],[-3.1866739100683645, 55.94580249754597],[-3.1869693523942684, 55.94575040309267],[-3.187264794720172, 55.945698308639365],[-3.187560237046076, 55.94564621418606],[-3.18785567937198, 55.94559411973276],[-3.1881511216978837, 55.94554202527946],[-3.1884465640237876, 55.945489930826156],[-3.1885965640237877, 55.94574973844729],[-3.1888920063496915, 55.94569764399399],[-3.188994612392689, 55.94541573620775],[-3.1890972184356867, 55.94513382842151],[-3.1891998244786843, 55.94485192063527],[-3.1890498244786842, 55.94459211301414],[-3.1891998244786843, 55.944332305393004],[-3.18939266076159, 55.94410249206007],[-3.189688103087494, 55.944050397606766],[-3.1899179164204297, 55.94424323388967],[-3.1901477297533654, 55.94443607017258],[-3.190377543086301, 55.944628906455485],[-3.1904801491292987, 55.94491081424172],[-3.1905827551722963, 55.94519272202796],[-3.190812568505232, 55.94538555831087],[-3.1909151745482296, 55.945667466097106],[-3.1911449878811653, 55.94586030238001],[-3.1910928934278653, 55.945564860054105],[-3.1910407989745653, 55.9452694177282],[-3.1910928934278653, 55.94497397540229],[-3.1910407989745653, 55.944678533076384],[-3.1910928934278653, 55.94438309075048],[-3.1911449878811653, 55.94408764842457],[-3.1911970823344653, 55.943792206098664],[-3.1911449878811653, 55.94349676377276],[-3.1911970823344653, 55.94320132144685],[-3.1911449878811653, 55.94290587912094],[-3.1911970823344653, 55.94320132144685],[-3.1909372747133298, 55.94305132144685],[-3.190641832387426, 55.943103415900154],[-3.190491832387426, 55.94336322352129],[-3.1903418323874257, 55.94362303114242],[-3.1901918323874257, 55.94336322352129],[-3.1900418323874256, 55.943103415900154],[-3.1898918323874255, 55.94284360827902],[-3.1895963900615216, 55.94289570273232],[-3.1898782978477573, 55.94279309668932],[-3.1895963900615216, 55.94289570273232],[-3.189314482275286, 55.94299830877532],[-3.18903257448905, 55.943100914818324],[-3.1887506667028145, 55.943203520861324],[-3.188490859081679, 55.943053520861326],[-3.188195416755775, 55.943001426408024],[-3.1878999744298713, 55.94294933195472],[-3.1876180666436356, 55.94284672591172],[-3.1873226243177317, 55.94279463145842],[-3.187040716531496, 55.94269202541542],[-3.187190716531496, 55.94295183303655],[-3.1872933225744937, 55.94323374082279],[-3.1873959286174913, 55.94351564860903],[-3.1871004862915875, 55.94356774306233],[-3.1872504862915876, 55.943827550683466],[-3.1869550439656837, 55.94387964513677],[-3.1872148515868193, 55.944029645136766],[-3.187474659207955, 55.944179645136764],[-3.1877344668290903, 55.94432964513676],[-3.188016374615326, 55.94422703909376],[-3.187964280162026, 55.943931596767854],[-3.1882642801620262, 55.943931596767854],[-3.1883163746153262, 55.94422703909376],[-3.188418980658324, 55.94450894688]
				]
			},"properties":{
		}
	}
		
	]
}