{"type": "FeatureCollection",
	"features"	: [
	{"type": "Feature",
			"geometry"	: {"type": "Polygon", "coordinates": [[[-3.1871804594993587, 55.94448750356385],[-3.187042325735092, 55.944193856370475],[-3.1869766116142273, 55.94420361961219],[-3.186897486448288, 55.94404815847112],[-3.186330199241638, 55.94413227278919],[-3.186405301094055, 55.944296745793935],[-3.1863033771514893, 55.944311015108454],[-3.1863395869731903, 55.94437109637507],[-3.186409324407577, 55.94436208419099],[-3.186425417661667, 55.944397381899876],[-3.186226934194565, 55.94442366740687],[-3.1863945722579956, 55.94457011490493],[-3.1864307820796967, 55.94458588614092],[-3.186488449573517, 55.94459189422912],[-3.1871804594993587, 55.94448750356385],[-3.1871804594993587, 55.94448750356385]]]},
		"properties": {"fill-opacity": 0.5, "fill": "#ff0000"}},
	{"type": "Feature",
			"geometry"	: {"type": "Polygon", "coordinates": [[[-3.186697661876678, 55.943360216655655],[-3.186556175351143, 55.94306656091478],[-3.186345621943474, 55.943098480124895],[-3.1864864379167557, 55.94339251114087],[-3.186697661876678, 55.943360216655655],[-3.186697661876678, 55.943360216655655]]]},
		"properties": {"fill-opacity": 0.5, "fill": "#ff0000"}},
	{"type": "Feature",
			"geometry"	: {"type": "Polygon", "coordinates": [[[-3.189708441495895, 55.94280820210462],[-3.1894750893115997, 55.94233128523903],[-3.1882721185684204, 55.942514542178216],[-3.1885054707527156, 55.94299295887116],[-3.189708441495895, 55.94280820210462],[-3.189708441495895, 55.94280820210462]]]},
		"properties": {"fill-opacity": 0.5, "fill": "#ff0000"}},
	{"type": "Feature",
			"geometry"	: {"type": "Polygon", "coordinates": [[[-3.188078999519348, 55.94541799748307],[-3.187633752822876, 55.94458288209647],[-3.1869176030158997, 55.94470154167527],[-3.187046349048614, 55.94494186375901],[-3.186909556388855, 55.944964393877896],[-3.18678081035614, 55.94481569485101],[-3.1865662336349487, 55.94487727734554],[-3.187113404273987, 55.94555317633777],[-3.1872957944869995, 55.945505112799054],[-3.187832236289978, 55.945460053177314],[-3.188078999519348, 55.94541799748307],[-3.188078999519348, 55.94541799748307]]]},
		"properties": {"fill-opacity": 0.5, "fill": "#ff0000"}},
	{"type": "Feature",
			"geometry"	: {"type": "Polygon", "coordinates": [[[-3.184319, 55.946233], [-3.184319, 55.942617], [-3.192473, 55.942617], [-3.192473, 55.946233]]]},
		"properties": {"fill-opacity": 0}},
	{"type": "Feature",
			"geometry"	: {"type": "Point", "coordinates": [-3.188271, 55.944063]},
			"properties": {"marker-size": "medium", "location": "rush.crown.link", "rgb-string": "#00ff00", "marker-color": "#00ff00", "marker-symbol": "lighthouse"}
			},
	{"type": "Feature",
			"geometry"	: {"type": "Point", "coordinates": [-3.189138, 55.944197]},
			"properties": {"marker-size": "medium", "location": "spoon.invest.every", "rgb-string": "#40ff00", "marker-color": "#40ff00", "marker-symbol": "lighthouse"}
			},
	{"type": "Feature",
			"geometry"	: {"type": "Point", "coordinates": [-3.189812, 55.94409]},
			"properties": {"marker-size": "medium", "location": "cliff.asleep.wedge", "rgb-string": "#40ff00", "marker-color": "#40ff00", "marker-symbol": "lighthouse"}
			},
	{"type": "Feature",
			"geometry"	: {"type": "Point", "coordinates": [-3.191161, 55.945976]},
			"properties": {"marker-size": "medium", "location": "simple.rust.audio", "rgb-string": "#000000", "marker-color": "#000000", "marker-symbol": "cross"}
			},
	{"type": "Feature",
			"geometry"	: {"type": "Point", "coordinates": [-3.191065, 55.94444]},
			"properties": {"marker-size": "medium", "location": "paying.crowd.weep", "rgb-string": "#40ff00", "marker-color": "#40ff00", "marker-symbol": "lighthouse"}
			},
	{"type": "Feature",
			"geometry"	: {"type": "Point", "coordinates": [-3.191113, 55.943901]},
			"properties": {"marker-size": "medium", "location": "spicy.bunch.shady", "rgb-string": "#00ff00", "marker-color": "#00ff00", "marker-symbol": "lighthouse"}
			},
	{"type": "Feature",
			"geometry"	: {"type": "Point", "coordinates": [-3.191161, 55.943362]},
			"properties": {"marker-size": "medium", "location": "meal.feed.large", "rgb-string": "#40ff00", "marker-color": "#40ff00", "marker-symbol": "lighthouse"}
			},
	{"type": "Feature",
			"geometry"	: {"type": "Point", "coordinates": [-3.191161, 55.943065]},
			"properties": {"marker-size": "medium", "location": "else.urban.museum", "rgb-string": "#00ff00", "marker-color": "#00ff00", "marker-symbol": "lighthouse"}
			},
	{"type": "Feature",
			"geometry"	: {"type": "Point", "coordinates": [-3.191161, 55.942742]},
			"properties": {"marker-size": "medium", "location": "along.spill.limp", "rgb-string": "#00ff00", "marker-color": "#00ff00", "marker-symbol": "lighthouse"}
			},
	{"type": "Feature",
			"geometry"	: {"type": "Point", "coordinates": [-3.190727, 55.943092]},
			"properties": {"marker-size": "medium", "location": "relate.chill.vest", "rgb-string": "#00ff00", "marker-color": "#00ff00", "marker-symbol": "lighthouse"}
			},
	{"type": "Feature",
			"geometry"	: {"type": "Point", "coordinates": [-3.190294, 55.943712]},
			"properties": {"marker-size": "medium", "location": "sculpture.shot.melon", "rgb-string": "#40ff00", "marker-color": "#40ff00", "marker-symbol": "lighthouse"}
			},
	{"type": "Feature",
			"geometry"	: {"type": "Point", "coordinates": [-3.189764, 55.942661]},
			"properties": {"marker-size": "medium", "location": "hooked.shine.third", "rgb-string": "#40ff00", "marker-color": "#40ff00", "marker-symbol": "lighthouse"}
			},
	{"type": "Feature",
			"geometry"	: {"type": "Point", "coordinates": [-3.188608, 55.943119]},
			"properties": {"marker-size": "medium", "location": "groups.ideas.script", "rgb-string": "#40ff00", "marker-color": "#40ff00", "marker-symbol": "lighthouse"}
			},
	{"type": "Feature",
			"geometry"	: {"type": "Point", "coordinates": [-3.188704, 55.943389]},
			"properties": {"marker-size": "medium", "location": "system.speak.guard", "rgb-string": "#00ff00", "marker-color": "#00ff00", "marker-symbol": "lighthouse"}
			},
	{"type": "Feature",
			"geometry"	: {"type": "Point", "coordinates": [-3.188126, 55.943793]},
			"properties": {"marker-size": "medium", "location": "cubs.trucks.help", "rgb-string": "#40ff00", "marker-color": "#40ff00", "marker-symbol": "lighthouse"}
			},
	{"type": "Feature",
			"geometry"	: {"type": "Point", "coordinates": [-3.187355, 55.943604]},
			"properties": {"marker-size": "medium", "location": "shut.stands.media", "rgb-string": "#80ff00", "marker-color": "#80ff00", "marker-symbol": "lighthouse"}
			},
	{"type": "Feature",
			"geometry"	: {"type": "Point", "coordinates": [-3.18697, 55.942688]},
			"properties": {"marker-size": "medium", "location": "strut.river.surely", "rgb-string": "#ff4000", "marker-color": "#ff4000", "marker-symbol": "danger"}
			},
	{"type": "Feature",
			"geometry"	: {"type": "Point", "coordinates": [-3.187018, 55.943982]},
			"properties": {"marker-size": "medium", "location": "renew.ears.tend", "rgb-string": "#80ff00", "marker-color": "#80ff00", "marker-symbol": "lighthouse"}
			},
	{"type": "Feature",
			"geometry"	: {"type": "Point", "coordinates": [-3.186103, 55.944251]},
			"properties": {"marker-size": "medium", "location": "organs.shape.fantastic", "rgb-string": "#ff4000", "marker-color": "#ff4000", "marker-symbol": "danger"}
			},
	{"type": "Feature",
			"geometry"	: {"type": "Point", "coordinates": [-3.186007, 55.943901]},
			"properties": {"marker-size": "medium", "location": "teams.mild.played", "rgb-string": "#ffc000", "marker-color": "#ffc000", "marker-symbol": "danger"}
			},
	{"type": "Feature",
			"geometry"	: {"type": "Point", "coordinates": [-3.185525, 55.943982]},
			"properties": {"marker-size": "medium", "location": "manliness.poem.cliff", "rgb-string": "#ffc000", "marker-color": "#ffc000", "marker-symbol": "danger"}
			},
	{"type": "Feature",
			"geometry"	: {"type": "Point", "coordinates": [-3.184947, 55.943443]},
			"properties": {"marker-size": "medium", "location": "sentences.sings.modern", "rgb-string": "#ffc000", "marker-color": "#ffc000", "marker-symbol": "danger"}
			},
	{"type": "Feature",
			"geometry"	: {"type": "Point", "coordinates": [-3.185236, 55.944575]},
			"properties": {"marker-size": "medium", "location": "acid.chair.butter", "rgb-string": "#ff8000", "marker-color": "#ff8000", "marker-symbol": "danger"}
			},
	{"type": "Feature",
			"geometry"	: {"type": "Point", "coordinates": [-3.184899, 55.944736]},
			"properties": {"marker-size": "medium", "location": "slide.leads.stores", "rgb-string": "#000000", "marker-color": "#000000", "marker-symbol": "cross"}
			},
	{"type": "Feature",
			"geometry"	: {"type": "Point", "coordinates": [-3.184513, 55.945302]},
			"properties": {"marker-size": "medium", "location": "settle.title.united", "rgb-string": "#ff4000", "marker-color": "#ff4000", "marker-symbol": "danger"}
			},
	{"type": "Feature",
			"geometry"	: {"type": "Point", "coordinates": [-3.185621, 55.945761]},
			"properties": {"marker-size": "medium", "location": "shed.desire.muddy", "rgb-string": "#ff4000", "marker-color": "#ff4000", "marker-symbol": "danger"}
			},
	{"type": "Feature",
			"geometry"	: {"type": "Point", "coordinates": [-3.185814, 55.94603]},
			"properties": {"marker-size": "medium", "location": "renew.slows.basket", "rgb-string": "#ff0000", "marker-color": "#ff0000", "marker-symbol": "danger"}
			},
	{"type": "Feature",
			"geometry"	: {"type": "Point", "coordinates": [-3.186296, 55.945761]},
			"properties": {"marker-size": "medium", "location": "posts.kicked.universally", "rgb-string": "#ff4000", "marker-color": "#ff4000", "marker-symbol": "danger"}
			},
	{"type": "Feature",
			"geometry"	: {"type": "Point", "coordinates": [-3.186729, 55.945168]},
			"properties": {"marker-size": "medium", "location": "dragon.bottle.crisp", "rgb-string": "#ffc000", "marker-color": "#ffc000", "marker-symbol": "danger"}
			},
	{"type": "Feature",
			"geometry"	: {"type": "Point", "coordinates": [-3.187307, 55.944494]},
			"properties": {"marker-size": "medium", "location": "only.fairly.rift", "rgb-string": "#ffc000", "marker-color": "#ffc000", "marker-symbol": "danger"}
			},
	{"type": "Feature",
			"geometry"	: {"type": "Point", "coordinates": [-3.187789, 55.944386]},
			"properties": {"marker-size": "medium", "location": "thank.salsa.brain", "rgb-string": "#40ff00", "marker-color": "#40ff00", "marker-symbol": "lighthouse"}
			},
	{"type": "Feature",
			"geometry"	: {"type": "Point", "coordinates": [-3.188319, 55.945518]},
			"properties": {"marker-size": "medium", "location": "skills.less.herb", "rgb-string": "#000000", "marker-color": "#000000", "marker-symbol": "cross"}
			},
	{"type": "Feature",
			"geometry"	: {"type": "Point", "coordinates": [-3.188897, 55.945707]},
			"properties": {"marker-size": "medium", "location": "stops.else.chats", "rgb-string": "#ff0000", "marker-color": "#ff0000", "marker-symbol": "danger"}
			},
	{"type": "Feature",
			"geometry": {"type": "LineString",
				"coordinates": [
				[-3.188396, 55.944425],[-3.1882933939570024, 55.944143092213764],[-3.1885888362829062, 55.944195186667066],[-3.18888427860881, 55.94424728112037],[-3.189179720934714, 55.944195186667066],[-3.1894751632606178, 55.944143092213764],[-3.1897706055865216, 55.94409099776046],[-3.1900004189194573, 55.94428383404337],[-3.190230232252393, 55.944476670326274],[-3.1904600455853287, 55.94466950660918],[-3.1905626516283263, 55.94495141439542],[-3.190665257671324, 55.94523332218166],[-3.1907678637143215, 55.945515229967896],[-3.1909976770472572, 55.9457080662508],[-3.191100283090255, 55.94598997403704],[-3.191048188636955, 55.94569453171113],[-3.191100283090255, 55.945399089385226],[-3.191048188636955, 55.94510364705932],[-3.191100283090255, 55.94480820473341],[-3.191048188636955, 55.944512762407506],[-3.191100283090255, 55.9442173200816],[-3.191152377543555, 55.94392187775569],[-3.191204471996855, 55.943626435429785],[-3.191152377543555, 55.94333099310388],[-3.191204471996855, 55.94303555077797],[-3.191152377543555, 55.942740108452064],[-3.190959541260649, 55.942969921785],[-3.1906640989347452, 55.9430220162383],[-3.190514098934745, 55.94328182385944],[-3.190364098934745, 55.94354163148057],[-3.190214098934745, 55.94328182385944],[-3.190064098934745, 55.9430220162383],[-3.189871262651839, 55.942792202905366],[-3.1895893548656034, 55.94289480894837],[-3.1892939125396995, 55.94294690340167],[-3.1889984702137957, 55.94299899785497],[-3.188703027887892, 55.943051092308274],[-3.1889984702137957, 55.943103186761576],[-3.18871656242756, 55.94320579280458],[-3.1884346546413243, 55.94330839884758],[-3.1881527468550885, 55.94341100489058],[-3.1882048413083885, 55.943706447216485],[-3.1879093989824847, 55.94365435276318],[-3.187613956656581, 55.94360225830988],[-3.1873139566565807, 55.94360225830988],[-3.1871639566565806, 55.943342450688746],[-3.1870139566565805, 55.94308264306761],[-3.1868639566565804, 55.94282283544648],[-3.1870139566565805, 55.94308264306761],[-3.1871639566565806, 55.943342450688746],[-3.186934143323645, 55.94353528697165],[-3.186704329990709, 55.94372812325456],[-3.186934143323645, 55.943920959537465],[-3.186638700997741, 55.94397305399077],[-3.1863567932115053, 55.94407566003377],[-3.1861269798785696, 55.944268496316674],[-3.186024373835572, 55.943986588530436],[-3.185724373835572, 55.943986588530436],[-3.185531537552666, 55.9437567751975],[-3.185236095226762, 55.9437046807442],[-3.1850432589438564, 55.94347486741126],[-3.1850953533971564, 55.94377030973717],[-3.1851474478504564, 55.944065752063075],[-3.1851995423037565, 55.94436119438898],[-3.1852516367570565, 55.94465663671489],[-3.1850218234241208, 55.944849472997795],[-3.184792010091185, 55.9450423092807],[-3.1845621967582494, 55.94523514556361],[-3.184822004379385, 55.945385145563606],[-3.1850818120005204, 55.9455351455636],[-3.185363719786756, 55.945637751606604],[-3.1856235274078917, 55.9457877516066],[-3.1858163636907975, 55.94601756493954],[-3.1861118060167013, 55.945965470486236],[-3.186407248342605, 55.945913376032934],[-3.186355153889305, 55.94561793370703],[-3.186303059436005, 55.94532249138112],[-3.186584967222241, 55.94542509742412],[-3.186482361179243, 55.94514318963788],[-3.186712174512179, 55.94533602592079],[-3.186562174512179, 55.945076218299654],[-3.1864121745121787, 55.94481641067852],[-3.1866940822984144, 55.94471380463552],[-3.18697599008465, 55.94461119859252],[-3.187257897870886, 55.94450859254952],[-3.1875533401967897, 55.944456498096216],[-3.1878352479830254, 55.944353892053215],[-3.187937854026023, 55.94463579983945],[-3.1880404600690206, 55.94491770762569],[-3.1881430661120183, 55.94519961541193],[-3.1882930661120183, 55.945459423033064],[-3.188588508437922, 55.94540732857976],[-3.188781344720828, 55.9456371419127],[-3.1886787386778304, 55.94535523412646],[-3.1885761326348327, 55.94507332634022],[-3.188473526591835, 55.94479141855398],[-3.188421432138535, 55.944495976228076]
				]
			},"properties":{
		}
	}
		
	]
}