{"type": "FeatureCollection",
	"features"	: [
	{"type": "Feature",
			"geometry"	: {"type": "Polygon", "coordinates": [[[-3.1871804594993587, 55.94448750356385],[-3.187042325735092, 55.944193856370475],[-3.1869766116142273, 55.94420361961219],[-3.186897486448288, 55.94404815847112],[-3.186330199241638, 55.94413227278919],[-3.186405301094055, 55.944296745793935],[-3.1863033771514893, 55.944311015108454],[-3.1863395869731903, 55.94437109637507],[-3.186409324407577, 55.94436208419099],[-3.186425417661667, 55.944397381899876],[-3.186226934194565, 55.94442366740687],[-3.1863945722579956, 55.94457011490493],[-3.1864307820796967, 55.94458588614092],[-3.186488449573517, 55.94459189422912],[-3.1871804594993587, 55.94448750356385],[-3.1871804594993587, 55.94448750356385]]]},
		"properties": {"fill-opacity": 0.5, "fill": "#ff0000"}},
	{"type": "Feature",
			"geometry"	: {"type": "Polygon", "coordinates": [[[-3.186697661876678, 55.943360216655655],[-3.186556175351143, 55.94306656091478],[-3.186345621943474, 55.943098480124895],[-3.1864864379167557, 55.94339251114087],[-3.186697661876678, 55.943360216655655],[-3.186697661876678, 55.943360216655655]]]},
		"properties": {"fill-opacity": 0.5, "fill": "#ff0000"}},
	{"type": "Feature",
			"geometry"	: {"type": "Polygon", "coordinates": [[[-3.189708441495895, 55.94280820210462],[-3.1894750893115997, 55.94233128523903],[-3.1882721185684204, 55.942514542178216],[-3.1885054707527156, 55.94299295887116],[-3.189708441495895, 55.94280820210462],[-3.189708441495895, 55.94280820210462]]]},
		"properties": {"fill-opacity": 0.5, "fill": "#ff0000"}},
	{"type": "Feature",
			"geometry"	: {"type": "Polygon", "coordinates": [[[-3.188078999519348, 55.94541799748307],[-3.187633752822876, 55.94458288209647],[-3.1869176030158997, 55.94470154167527],[-3.187046349048614, 55.94494186375901],[-3.186909556388855, 55.944964393877896],[-3.18678081035614, 55.94481569485101],[-3.1865662336349487, 55.94487727734554],[-3.187113404273987, 55.94555317633777],[-3.1872957944869995, 55.945505112799054],[-3.187832236289978, 55.945460053177314],[-3.188078999519348, 55.94541799748307],[-3.188078999519348, 55.94541799748307]]]},
		"properties": {"fill-opacity": 0.5, "fill": "#ff0000"}},
	{"type": "Feature",
			"geometry"	: {"type": "Polygon", "coordinates": [[[-3.184319, 55.946233], [-3.184319, 55.942617], [-3.192473, 55.942617], [-3.192473, 55.946233]]]},
		"properties": {"fill-opacity": 0}},
	{"type": "Feature",
			"geometry"	: {"type": "Point", "coordinates": [-3.189186, 55.945087]},
			"properties": {"marker-size": "medium", "location": "number.exist.rate", "rgb-string": "#ffc000", "marker-color": "#ffc000", "marker-symbol": "danger"}
			},
	{"type": "Feature",
			"geometry"	: {"type": "Point", "coordinates": [-3.191016, 55.944979]},
			"properties": {"marker-size": "medium", "location": "shapes.sheep.nature", "rgb-string": "#ff4000", "marker-color": "#ff4000", "marker-symbol": "danger"}
			},
	{"type": "Feature",
			"geometry"	: {"type": "Point", "coordinates": [-3.192221, 55.945114]},
			"properties": {"marker-size": "medium", "location": "useful.hike.trades", "rgb-string": "#c0ff00", "marker-color": "#c0ff00", "marker-symbol": "lighthouse"}
			},
	{"type": "Feature",
			"geometry"	: {"type": "Point", "coordinates": [-3.191257, 55.945599]},
			"properties": {"marker-size": "medium", "location": "skins.engage.best", "rgb-string": "#ff4000", "marker-color": "#ff4000", "marker-symbol": "danger"}
			},
	{"type": "Feature",
			"geometry"	: {"type": "Point", "coordinates": [-3.189957, 55.94603]},
			"properties": {"marker-size": "medium", "location": "love.behind.orchestra", "rgb-string": "#ffc000", "marker-color": "#ffc000", "marker-symbol": "danger"}
			},
	{"type": "Feature",
			"geometry"	: {"type": "Point", "coordinates": [-3.18986, 55.945491]},
			"properties": {"marker-size": "medium", "location": "turkey.limit.ramp", "rgb-string": "#ffc000", "marker-color": "#ffc000", "marker-symbol": "danger"}
			},
	{"type": "Feature",
			"geometry"	: {"type": "Point", "coordinates": [-3.18933, 55.945653]},
			"properties": {"marker-size": "medium", "location": "museum.spicy.horns", "rgb-string": "#ffc000", "marker-color": "#ffc000", "marker-symbol": "danger"}
			},
	{"type": "Feature",
			"geometry"	: {"type": "Point", "coordinates": [-3.188801, 55.945437]},
			"properties": {"marker-size": "medium", "location": "shady.soft.phones", "rgb-string": "#000000", "marker-color": "#000000", "marker-symbol": "cross"}
			},
	{"type": "Feature",
			"geometry"	: {"type": "Point", "coordinates": [-3.188463, 55.945761]},
			"properties": {"marker-size": "medium", "location": "bend.tubes.chops", "rgb-string": "#ff4000", "marker-color": "#ff4000", "marker-symbol": "danger"}
			},
	{"type": "Feature",
			"geometry"	: {"type": "Point", "coordinates": [-3.187885, 55.944709]},
			"properties": {"marker-size": "medium", "location": "hurt.green.filer", "rgb-string": "#c0ff00", "marker-color": "#c0ff00", "marker-symbol": "lighthouse"}
			},
	{"type": "Feature",
			"geometry"	: {"type": "Point", "coordinates": [-3.186777, 55.944575]},
			"properties": {"marker-size": "medium", "location": "artist.gets.react", "rgb-string": "#000000", "marker-color": "#000000", "marker-symbol": "cross"}
			},
	{"type": "Feature",
			"geometry"	: {"type": "Point", "coordinates": [-3.186537, 55.944925]},
			"properties": {"marker-size": "medium", "location": "laws.merit.bleak", "rgb-string": "#ff0000", "marker-color": "#ff0000", "marker-symbol": "danger"}
			},
	{"type": "Feature",
			"geometry"	: {"type": "Point", "coordinates": [-3.186729, 55.945168]},
			"properties": {"marker-size": "medium", "location": "dragon.bottle.crisp", "rgb-string": "#ff0000", "marker-color": "#ff0000", "marker-symbol": "danger"}
			},
	{"type": "Feature",
			"geometry"	: {"type": "Point", "coordinates": [-3.186922, 55.945437]},
			"properties": {"marker-size": "medium", "location": "spent.spoon.bolt", "rgb-string": "#ff8000", "marker-color": "#ff8000", "marker-symbol": "danger"}
			},
	{"type": "Feature",
			"geometry"	: {"type": "Point", "coordinates": [-3.185814, 55.94603]},
			"properties": {"marker-size": "medium", "location": "renew.slows.basket", "rgb-string": "#ff8000", "marker-color": "#ff8000", "marker-symbol": "danger"}
			},
	{"type": "Feature",
			"geometry"	: {"type": "Point", "coordinates": [-3.185621, 55.945761]},
			"properties": {"marker-size": "medium", "location": "shed.desire.muddy", "rgb-string": "#ff8000", "marker-color": "#ff8000", "marker-symbol": "danger"}
			},
	{"type": "Feature",
			"geometry"	: {"type": "Point", "coordinates": [-3.184513, 55.945302]},
			"properties": {"marker-size": "medium", "location": "settle.title.united", "rgb-string": "#ffc000", "marker-color": "#ffc000", "marker-symbol": "danger"}
			},
	{"type": "Feature",
			"geometry"	: {"type": "Point", "coordinates": [-3.184658, 55.943874]},
			"properties": {"marker-size": "medium", "location": "rider.mile.lime", "rgb-string": "#ffc000", "marker-color": "#ffc000", "marker-symbol": "danger"}
			},
	{"type": "Feature",
			"geometry"	: {"type": "Point", "coordinates": [-3.184947, 55.943443]},
			"properties": {"marker-size": "medium", "location": "sentences.sings.modern", "rgb-string": "#ffc000", "marker-color": "#ffc000", "marker-symbol": "danger"}
			},
	{"type": "Feature",
			"geometry"	: {"type": "Point", "coordinates": [-3.184754, 55.943012]},
			"properties": {"marker-size": "medium", "location": "courier.assume.bill", "rgb-string": "#ffc000", "marker-color": "#ffc000", "marker-symbol": "danger"}
			},
	{"type": "Feature",
			"geometry"	: {"type": "Point", "coordinates": [-3.185621, 55.943065]},
			"properties": {"marker-size": "medium", "location": "toned.deflection.bland", "rgb-string": "#000000", "marker-color": "#000000", "marker-symbol": "cross"}
			},
	{"type": "Feature",
			"geometry"	: {"type": "Point", "coordinates": [-3.185814, 55.943551]},
			"properties": {"marker-size": "medium", "location": "record.sofa.sock", "rgb-string": "#000000", "marker-color": "#000000", "marker-symbol": "cross"}
			},
	{"type": "Feature",
			"geometry"	: {"type": "Point", "coordinates": [-3.186537, 55.944063]},
			"properties": {"marker-size": "medium", "location": "lime.learns.front", "rgb-string": "#ff8000", "marker-color": "#ff8000", "marker-symbol": "danger"}
			},
	{"type": "Feature",
			"geometry"	: {"type": "Point", "coordinates": [-3.187018, 55.943982]},
			"properties": {"marker-size": "medium", "location": "renew.ears.tend", "rgb-string": "#c0ff00", "marker-color": "#c0ff00", "marker-symbol": "lighthouse"}
			},
	{"type": "Feature",
			"geometry"	: {"type": "Point", "coordinates": [-3.187645, 55.944143]},
			"properties": {"marker-size": "medium", "location": "bound.ends.matter", "rgb-string": "#80ff00", "marker-color": "#80ff00", "marker-symbol": "lighthouse"}
			},
	{"type": "Feature",
			"geometry"	: {"type": "Point", "coordinates": [-3.1875, 55.943874]},
			"properties": {"marker-size": "medium", "location": "begins.spider.drips", "rgb-string": "#80ff00", "marker-color": "#80ff00", "marker-symbol": "lighthouse"}
			},
	{"type": "Feature",
			"geometry"	: {"type": "Point", "coordinates": [-3.187355, 55.943604]},
			"properties": {"marker-size": "medium", "location": "shut.stands.media", "rgb-string": "#80ff00", "marker-color": "#80ff00", "marker-symbol": "lighthouse"}
			},
	{"type": "Feature",
			"geometry"	: {"type": "Point", "coordinates": [-3.18697, 55.942688]},
			"properties": {"marker-size": "medium", "location": "strut.river.surely", "rgb-string": "#c0ff00", "marker-color": "#c0ff00", "marker-symbol": "lighthouse"}
			},
	{"type": "Feature",
			"geometry"	: {"type": "Point", "coordinates": [-3.187837, 55.943227]},
			"properties": {"marker-size": "medium", "location": "gums.clock.modes", "rgb-string": "#80ff00", "marker-color": "#80ff00", "marker-symbol": "lighthouse"}
			},
	{"type": "Feature",
			"geometry"	: {"type": "Point", "coordinates": [-3.189234, 55.943012]},
			"properties": {"marker-size": "medium", "location": "region.passes.pencil", "rgb-string": "#80ff00", "marker-color": "#80ff00", "marker-symbol": "lighthouse"}
			},
	{"type": "Feature",
			"geometry"	: {"type": "Point", "coordinates": [-3.190053, 55.943173]},
			"properties": {"marker-size": "medium", "location": "shows.fries.lamp", "rgb-string": "#40ff00", "marker-color": "#40ff00", "marker-symbol": "lighthouse"}
			},
	{"type": "Feature",
			"geometry"	: {"type": "Point", "coordinates": [-3.191113, 55.943631]},
			"properties": {"marker-size": "medium", "location": "loaf.cheer.slave", "rgb-string": "#00ff00", "marker-color": "#00ff00", "marker-symbol": "lighthouse"}
			},
	{"type": "Feature",
			"geometry"	: {"type": "Point", "coordinates": [-3.189812, 55.94409]},
			"properties": {"marker-size": "medium", "location": "cliff.asleep.wedge", "rgb-string": "#40ff00", "marker-color": "#40ff00", "marker-symbol": "lighthouse"}
			},
	{"type": "Feature",
			"geometry": {"type": "LineString",
				"coordinates": [
				[-3.188396, 55.944425],[-3.1886258133329357, 55.94461783628291],[-3.1888556266658714, 55.944810672565815],[-3.189085439998807, 55.94500350884872],[-3.1893452476199426, 55.94485350884872],[-3.1896271554061784, 55.944956114891724],[-3.189909063192414, 55.945058720934725],[-3.19019097097865, 55.944956114891724],[-3.1904728787648855, 55.945058720934725],[-3.1907683210907893, 55.94500662648142],[-3.191063763416693, 55.94495453202812],[-3.191359205742597, 55.94490243757482],[-3.1916190133637325, 55.945052437574816],[-3.1919144556896364, 55.945000343121514],[-3.192196363475872, 55.945102949164514],[-3.1919365558547366, 55.94525294916451],[-3.191676748233601, 55.94540294916451],[-3.1914169406124655, 55.94555294916451],[-3.19113503282623, 55.94565555520751],[-3.190853125039994, 55.94575816125051],[-3.1905712172537584, 55.94586076729351],[-3.1902893094675226, 55.94596337333651],[-3.189993867141619, 55.94601546778981],[-3.1898438671416187, 55.94575566016868],[-3.1898959615949187, 55.94546021784277],[-3.189614053808683, 55.94556282388577],[-3.1893321460224473, 55.94566542992877],[-3.189032146022447, 55.94566542992877],[-3.1888023326895114, 55.94547259364587],[-3.1885725193565757, 55.94566542992877],[-3.1884225193565756, 55.94540562230764],[-3.1882725193565755, 55.945145814686505],[-3.1881225193565754, 55.94488600706537],[-3.1878927060236397, 55.944693170782465],[-3.187662892690704, 55.94450033449956],[-3.1873674503648, 55.94455242895286],[-3.1870720080388963, 55.94460452340616],[-3.1867765657129925, 55.944656617859465],[-3.186494657926757, 55.944759223902466],[-3.1867901002526606, 55.944707129449164],[-3.186508192466425, 55.944809735492164],[-3.186226284680189, 55.944912341535165],[-3.186456098013125, 55.94510517781807],[-3.1866859113460606, 55.94529801410098],[-3.1869157246789963, 55.945490850383884],[-3.1866338168927606, 55.94538824434088],[-3.186351909106525, 55.94528563829788],[-3.186404003559825, 55.94558108062379],[-3.1861040035598247, 55.94558108062379],[-3.1861560980131247, 55.945876522949696],[-3.185860655687221, 55.945928617403],[-3.1856008480660853, 55.945778617403],[-3.1853189402798496, 55.94567601136],[-3.185037032493614, 55.945573405317],[-3.1847772248724784, 55.945423405317],[-3.1844953170862427, 55.945320799274],[-3.1845474115395427, 55.94502535694809],[-3.1845995059928427, 55.94472991462219],[-3.1846516004461427, 55.94443447229628],[-3.1847036948994427, 55.94413902997037],[-3.1846516004461427, 55.943843587644466],[-3.1848444367290485, 55.94361377431153],[-3.1847923422757485, 55.94331833198562],[-3.1847402478224485, 55.943022889659716],[-3.1850402478224487, 55.943022889659716],[-3.185340247822449, 55.943022889659716],[-3.185640247822449, 55.943022889659716],[-3.1857428538654466, 55.943304797445954],[-3.1858454599084443, 55.94358670523219],[-3.18612736769468, 55.94368931127519],[-3.1864092754809157, 55.943791917318194],[-3.1866911832671514, 55.943894523361195],[-3.1863957409412476, 55.9439466178145],[-3.1866957409412477, 55.9439466178145],[-3.1869911832671516, 55.9439987122678],[-3.1872866255930554, 55.9440508067211],[-3.1875820679189593, 55.9441029011744],[-3.187432067918959, 55.94384309355327],[-3.187282067918959, 55.943583285932135],[-3.187132067918959, 55.943323478311],[-3.186982067918959, 55.94306367068987],[-3.186832067918959, 55.94280386306873],[-3.1871139757051945, 55.94290646911173],[-3.18739588349143, 55.943009075154734],[-3.1876556911125657, 55.94315907515473],[-3.1879511334384696, 55.943211169608034],[-3.1882465757643734, 55.94315907515473],[-3.1885420180902773, 55.94310698070143],[-3.188837460416181, 55.94305488624813],[-3.189132902742085, 55.943002791794825],[-3.189432902742085, 55.943002791794825],[-3.1897329027420853, 55.943002791794825],[-3.1900329027420855, 55.943002791794825],[-3.1901829027420856, 55.94326259941596],[-3.1904783450679894, 55.94321050496266],[-3.1906711813508952, 55.94344031829559],[-3.190966623676799, 55.943492412748896],[-3.1911964370097348, 55.9436852490318],[-3.1909366293885992, 55.9438352490318],[-3.1906411870626954, 55.9438873434851],[-3.1903457447367916, 55.943939437938404],[-3.1900503024108877, 55.943991532391706],[-3.189754860084984, 55.94404362684501],[-3.18945941775908, 55.94409572129831],[-3.189163975433176, 55.94414781575161],[-3.1888685331072724, 55.944199910204915],[-3.1885730907813685, 55.94425200465822]
				]
			},"properties":{
		}
	}
		
	]
}