{"type": "FeatureCollection",
	"features"	: [
	{"type": "Feature",
			"geometry"	: {"type": "Polygon", "coordinates": [[[-3.1871804594993587, 55.94448750356385],[-3.187042325735092, 55.944193856370475],[-3.1869766116142273, 55.94420361961219],[-3.186897486448288, 55.94404815847112],[-3.186330199241638, 55.94413227278919],[-3.186405301094055, 55.944296745793935],[-3.1863033771514893, 55.944311015108454],[-3.1863395869731903, 55.94437109637507],[-3.186409324407577, 55.94436208419099],[-3.186425417661667, 55.944397381899876],[-3.186226934194565, 55.94442366740687],[-3.1863945722579956, 55.94457011490493],[-3.1864307820796967, 55.94458588614092],[-3.186488449573517, 55.94459189422912],[-3.1871804594993587, 55.94448750356385],[-3.1871804594993587, 55.94448750356385]]]},
		"properties": {"fill-opacity": 0.5, "fill": "#ff0000"}},
	{"type": "Feature",
			"geometry"	: {"type": "Polygon", "coordinates": [[[-3.186697661876678, 55.943360216655655],[-3.186556175351143, 55.94306656091478],[-3.186345621943474, 55.943098480124895],[-3.1864864379167557, 55.94339251114087],[-3.186697661876678, 55.943360216655655],[-3.186697661876678, 55.943360216655655]]]},
		"properties": {"fill-opacity": 0.5, "fill": "#ff0000"}},
	{"type": "Feature",
			"geometry"	: {"type": "Polygon", "coordinates": [[[-3.189708441495895, 55.94280820210462],[-3.1894750893115997, 55.94233128523903],[-3.1882721185684204, 55.942514542178216],[-3.1885054707527156, 55.94299295887116],[-3.189708441495895, 55.94280820210462],[-3.189708441495895, 55.94280820210462]]]},
		"properties": {"fill-opacity": 0.5, "fill": "#ff0000"}},
	{"type": "Feature",
			"geometry"	: {"type": "Polygon", "coordinates": [[[-3.188078999519348, 55.94541799748307],[-3.187633752822876, 55.94458288209647],[-3.1869176030158997, 55.94470154167527],[-3.187046349048614, 55.94494186375901],[-3.186909556388855, 55.944964393877896],[-3.18678081035614, 55.94481569485101],[-3.1865662336349487, 55.94487727734554],[-3.187113404273987, 55.94555317633777],[-3.1872957944869995, 55.945505112799054],[-3.187832236289978, 55.945460053177314],[-3.188078999519348, 55.94541799748307],[-3.188078999519348, 55.94541799748307]]]},
		"properties": {"fill-opacity": 0.5, "fill": "#ff0000"}},
	{"type": "Feature",
			"geometry"	: {"type": "Polygon", "coordinates": [[[-3.184319, 55.946233], [-3.184319, 55.942617], [-3.192473, 55.942617], [-3.192473, 55.946233]]]},
		"properties": {"fill-opacity": 0}},
	{"type": "Feature",
			"geometry"	: {"type": "Point", "coordinates": [-3.18514, 55.943685]},
			"properties": {"marker-size": "medium", "location": "hello.love.keys", "rgb-string": "#ffc000", "marker-color": "#ffc000", "marker-symbol": "danger"}
			},
	{"type": "Feature",
			"geometry"	: {"type": "Point", "coordinates": [-3.185525, 55.943982]},
			"properties": {"marker-size": "medium", "location": "manliness.poem.cliff", "rgb-string": "#c0ff00", "marker-color": "#c0ff00", "marker-symbol": "lighthouse"}
			},
	{"type": "Feature",
			"geometry"	: {"type": "Point", "coordinates": [-3.184465, 55.944952]},
			"properties": {"marker-size": "medium", "location": "sports.topic.clocks", "rgb-string": "#ff4000", "marker-color": "#ff4000", "marker-symbol": "danger"}
			},
	{"type": "Feature",
			"geometry"	: {"type": "Point", "coordinates": [-3.185814, 55.94603]},
			"properties": {"marker-size": "medium", "location": "renew.slows.basket", "rgb-string": "#ff8000", "marker-color": "#ff8000", "marker-symbol": "danger"}
			},
	{"type": "Feature",
			"geometry"	: {"type": "Point", "coordinates": [-3.186922, 55.945437]},
			"properties": {"marker-size": "medium", "location": "spent.spoon.bolt", "rgb-string": "#ff4000", "marker-color": "#ff4000", "marker-symbol": "danger"}
			},
	{"type": "Feature",
			"geometry"	: {"type": "Point", "coordinates": [-3.18856, 55.946057]},
			"properties": {"marker-size": "medium", "location": "boost.radar.stress", "rgb-string": "#ff4000", "marker-color": "#ff4000", "marker-symbol": "danger"}
			},
	{"type": "Feature",
			"geometry"	: {"type": "Point", "coordinates": [-3.189379, 55.945949]},
			"properties": {"marker-size": "medium", "location": "coherent.saints.stuck", "rgb-string": "#ff0000", "marker-color": "#ff0000", "marker-symbol": "danger"}
			},
	{"type": "Feature",
			"geometry"	: {"type": "Point", "coordinates": [-3.191065, 55.944709]},
			"properties": {"marker-size": "medium", "location": "estate.gave.votes", "rgb-string": "#40ff00", "marker-color": "#40ff00", "marker-symbol": "lighthouse"}
			},
	{"type": "Feature",
			"geometry"	: {"type": "Point", "coordinates": [-3.192221, 55.945114]},
			"properties": {"marker-size": "medium", "location": "useful.hike.trades", "rgb-string": "#ffc000", "marker-color": "#ffc000", "marker-symbol": "danger"}
			},
	{"type": "Feature",
			"geometry"	: {"type": "Point", "coordinates": [-3.191065, 55.94444]},
			"properties": {"marker-size": "medium", "location": "paying.crowd.weep", "rgb-string": "#000000", "marker-color": "#000000", "marker-symbol": "cross"}
			},
	{"type": "Feature",
			"geometry"	: {"type": "Point", "coordinates": [-3.191113, 55.94417]},
			"properties": {"marker-size": "medium", "location": "hills.giant.crate", "rgb-string": "#00ff00", "marker-color": "#00ff00", "marker-symbol": "lighthouse"}
			},
	{"type": "Feature",
			"geometry"	: {"type": "Point", "coordinates": [-3.191113, 55.943631]},
			"properties": {"marker-size": "medium", "location": "loaf.cheer.slave", "rgb-string": "#00ff00", "marker-color": "#00ff00", "marker-symbol": "lighthouse"}
			},
	{"type": "Feature",
			"geometry"	: {"type": "Point", "coordinates": [-3.191161, 55.943065]},
			"properties": {"marker-size": "medium", "location": "else.urban.museum", "rgb-string": "#000000", "marker-color": "#000000", "marker-symbol": "cross"}
			},
	{"type": "Feature",
			"geometry"	: {"type": "Point", "coordinates": [-3.189234, 55.943012]},
			"properties": {"marker-size": "medium", "location": "region.passes.pencil", "rgb-string": "#40ff00", "marker-color": "#40ff00", "marker-symbol": "lighthouse"}
			},
	{"type": "Feature",
			"geometry"	: {"type": "Point", "coordinates": [-3.189764, 55.942661]},
			"properties": {"marker-size": "medium", "location": "hooked.shine.third", "rgb-string": "#40ff00", "marker-color": "#40ff00", "marker-symbol": "lighthouse"}
			},
	{"type": "Feature",
			"geometry"	: {"type": "Point", "coordinates": [-3.189908, 55.942904]},
			"properties": {"marker-size": "medium", "location": "second.launch.miles", "rgb-string": "#000000", "marker-color": "#000000", "marker-symbol": "cross"}
			},
	{"type": "Feature",
			"geometry"	: {"type": "Point", "coordinates": [-3.189812, 55.94409]},
			"properties": {"marker-size": "medium", "location": "cliff.asleep.wedge", "rgb-string": "#40ff00", "marker-color": "#40ff00", "marker-symbol": "lighthouse"}
			},
	{"type": "Feature",
			"geometry"	: {"type": "Point", "coordinates": [-3.188945, 55.943928]},
			"properties": {"marker-size": "medium", "location": "noted.friday.jams", "rgb-string": "#40ff00", "marker-color": "#40ff00", "marker-symbol": "lighthouse"}
			},
	{"type": "Feature",
			"geometry"	: {"type": "Point", "coordinates": [-3.188608, 55.943119]},
			"properties": {"marker-size": "medium", "location": "groups.ideas.script", "rgb-string": "#80ff00", "marker-color": "#80ff00", "marker-symbol": "lighthouse"}
			},
	{"type": "Feature",
			"geometry"	: {"type": "Point", "coordinates": [-3.189138, 55.944197]},
			"properties": {"marker-size": "medium", "location": "spoon.invest.every", "rgb-string": "#40ff00", "marker-color": "#40ff00", "marker-symbol": "lighthouse"}
			},
	{"type": "Feature",
			"geometry"	: {"type": "Point", "coordinates": [-3.188801, 55.945437]},
			"properties": {"marker-size": "medium", "location": "shady.soft.phones", "rgb-string": "#ffc000", "marker-color": "#ffc000", "marker-symbol": "danger"}
			},
	{"type": "Feature",
			"geometry"	: {"type": "Point", "coordinates": [-3.18803, 55.944979]},
			"properties": {"marker-size": "medium", "location": "agents.mile.crib", "rgb-string": "#c0ff00", "marker-color": "#c0ff00", "marker-symbol": "lighthouse"}
			},
	{"type": "Feature",
			"geometry"	: {"type": "Point", "coordinates": [-3.187789, 55.944386]},
			"properties": {"marker-size": "medium", "location": "thank.salsa.brain", "rgb-string": "#80ff00", "marker-color": "#80ff00", "marker-symbol": "lighthouse"}
			},
	{"type": "Feature",
			"geometry"	: {"type": "Point", "coordinates": [-3.187018, 55.943982]},
			"properties": {"marker-size": "medium", "location": "renew.ears.tend", "rgb-string": "#c0ff00", "marker-color": "#c0ff00", "marker-symbol": "lighthouse"}
			},
	{"type": "Feature",
			"geometry"	: {"type": "Point", "coordinates": [-3.187211, 55.943335]},
			"properties": {"marker-size": "medium", "location": "scale.chair.kinds", "rgb-string": "#ffc000", "marker-color": "#ffc000", "marker-symbol": "danger"}
			},
	{"type": "Feature",
			"geometry"	: {"type": "Point", "coordinates": [-3.187018, 55.942877]},
			"properties": {"marker-size": "medium", "location": "valve.elaborate.fortunate", "rgb-string": "#000000", "marker-color": "#000000", "marker-symbol": "cross"}
			},
	{"type": "Feature",
			"geometry"	: {"type": "Point", "coordinates": [-3.18697, 55.942688]},
			"properties": {"marker-size": "medium", "location": "strut.river.surely", "rgb-string": "#ffc000", "marker-color": "#ffc000", "marker-symbol": "danger"}
			},
	{"type": "Feature",
			"geometry"	: {"type": "Point", "coordinates": [-3.186344, 55.942958]},
			"properties": {"marker-size": "medium", "location": "hers.banks.goat", "rgb-string": "#ffc000", "marker-color": "#ffc000", "marker-symbol": "danger"}
			},
	{"type": "Feature",
			"geometry"	: {"type": "Point", "coordinates": [-3.186248, 55.942796]},
			"properties": {"marker-size": "medium", "location": "under.retire.bump", "rgb-string": "#ff0000", "marker-color": "#ff0000", "marker-symbol": "danger"}
			},
	{"type": "Feature",
			"geometry"	: {"type": "Point", "coordinates": [-3.185573, 55.942877]},
			"properties": {"marker-size": "medium", "location": "dent.shins.cycle", "rgb-string": "#ff0000", "marker-color": "#ff0000", "marker-symbol": "danger"}
			},
	{"type": "Feature",
			"geometry"	: {"type": "Point", "coordinates": [-3.185621, 55.943065]},
			"properties": {"marker-size": "medium", "location": "toned.deflection.bland", "rgb-string": "#ffc000", "marker-color": "#ffc000", "marker-symbol": "danger"}
			},
	{"type": "Feature",
			"geometry"	: {"type": "Point", "coordinates": [-3.184754, 55.943012]},
			"properties": {"marker-size": "medium", "location": "courier.assume.bill", "rgb-string": "#ff4000", "marker-color": "#ff4000", "marker-symbol": "danger"}
			},
	{"type": "Feature",
			"geometry"	: {"type": "Point", "coordinates": [-3.184803, 55.943173]},
			"properties": {"marker-size": "medium", "location": "brings.remedy.latter", "rgb-string": "#000000", "marker-color": "#000000", "marker-symbol": "cross"}
			},
	{"type": "Feature",
			"geometry": {"type": "LineString",
				"coordinates": [
				[-3.188396, 55.944425],[-3.1881140922137643, 55.944322393957],[-3.1878321844275286, 55.944219787914],[-3.187550276641293, 55.944117181871],[-3.187254834315389, 55.9440650874177],[-3.186959391989485, 55.944012992964396],[-3.1866639496635814, 55.943960898511094],[-3.1863685073376775, 55.94390880405779],[-3.1860730650117737, 55.94385670960449],[-3.18577762268587, 55.94380461515119],[-3.185482180359966, 55.943752520697885],[-3.185186738034062, 55.94370042624458],[-3.185379574316968, 55.94393023957752],[-3.185186738034062, 55.944160052910455],[-3.1849939017511564, 55.94438986624339],[-3.1848010654682506, 55.94461967957633],[-3.184608229185345, 55.94484949290926],[-3.1848380425182805, 55.94504232919217],[-3.1850308788011863, 55.945272142525106],[-3.185260692134122, 55.94546497880801],[-3.185453528417028, 55.94569479214095],[-3.1856833417499635, 55.945887628423854],[-3.1859787840758673, 55.94583553397055],[-3.186274226401771, 55.94578343951725],[-3.186569668727675, 55.94573134506395],[-3.186865111053579, 55.945679250610645],[-3.1867151110535787, 55.94541944298951],[-3.1869970188398145, 55.94552204903251],[-3.18727892662605, 55.94562465507551],[-3.187560834412286, 55.94572726111851],[-3.1878427421985216, 55.945829867161514],[-3.1881246499847573, 55.945932473204515],[-3.188406557770993, 55.946035079247515],[-3.188702000096897, 55.94598298479421],[-3.189002000096897, 55.94598298479421],[-3.189297442422801, 55.94593089034091],[-3.1895572500439364, 55.94578089034091],[-3.189787063376872, 55.94558805405801],[-3.1900468709980077, 55.94543805405801],[-3.1902766843309434, 55.9452452177751],[-3.190536491952079, 55.945095217775105],[-3.1907663052850146, 55.9449023814922],[-3.19102611290615, 55.9447523814922],[-3.191321555232054, 55.9448044759455],[-3.191616997557958, 55.944856570398805],[-3.1918989053441935, 55.944959176441806],[-3.192158712965329, 55.945109176441804],[-3.1918989053441935, 55.944959176441806],[-3.191639097723058, 55.94480917644181],[-3.1913792901019225, 55.94465917644181],[-3.191119482480787, 55.94450917644181],[-3.191067388027487, 55.944213734115905],[-3.191119482480787, 55.94391829179],[-3.191067388027487, 55.94362284946409],[-3.191119482480787, 55.943327407138185],[-3.191171576934087, 55.94303196481228],[-3.1908715769340867, 55.94303196481228],[-3.1905715769340866, 55.94303196481228],[-3.1902715769340864, 55.94303196481228],[-3.189971576934086, 55.94303196481228],[-3.189671576934086, 55.94303196481228],[-3.189371576934086, 55.94303196481228],[-3.1896670192599896, 55.942979870358975],[-3.1897696253029872, 55.94269796257274],[-3.1899196253029873, 55.94295777019387],[-3.1898675308496873, 55.94325321251978],[-3.1898154363963873, 55.943548654845685],[-3.1897633419430873, 55.94384409717159],[-3.1897112474897873, 55.9441395394975],[-3.1894293397035516, 55.9440369334545],[-3.1891338973776477, 55.943984839001196],[-3.188941061094742, 55.94375502566826],[-3.188791061094742, 55.943495218047126],[-3.1886410610947418, 55.94323541042599],[-3.188791061094742, 55.943495218047126],[-3.188941061094742, 55.94375502566826],[-3.189091061094742, 55.944014833289394],[-3.188941061094742, 55.94427464091053],[-3.188791061094742, 55.94453444853166],[-3.1888936671377395, 55.9448163563179],[-3.1887436671377394, 55.945076163939035],[-3.188846273180737, 55.94535807172527],[-3.188653436897831, 55.94512825839234],[-3.1884606006149254, 55.9448984450594],[-3.18820079299379, 55.9447484450594],[-3.18825288744709, 55.94504388738531],[-3.188023074114154, 55.944851051102404],[-3.187873074114154, 55.94459124348127],[-3.1877704680711565, 55.94430933569503],[-3.187488560284921, 55.94420672965203],[-3.1872287526637852, 55.94405672965203],[-3.1869468448775495, 55.94395412360903],[-3.1872422872034534, 55.94390202915573],[-3.1870922872034533, 55.943642221534596],[-3.186942287203453, 55.94338241391346],[-3.187237729529357, 55.94333031946016],[-3.187087729529357, 55.943070511839025],[-3.186937729529357, 55.94281070421789],[-3.1872196373155925, 55.94270809817489],[-3.1875015451018283, 55.94281070421789],[-3.1872196373155925, 55.94270809817489],[-3.186937729529357, 55.94281070421789],[-3.186655821743121, 55.94291331026089],[-3.1863739139568854, 55.94301591630389],[-3.186476519999883, 55.942734008517654],[-3.1861946122136473, 55.942836614560655],[-3.1858991698877435, 55.94288870901396],[-3.1856037275618396, 55.942836614560655],[-3.1856558220151396, 55.94313205688656],[-3.185373914228904, 55.94302945084356],[-3.1850739142289037, 55.94302945084356],[-3.1847739142289035, 55.94302945084356],[-3.1848260086822036, 55.94332489316947],[-3.1851214510081074, 55.94337698762277],[-3.185403358794343, 55.94347959366577],[-3.185685266580579, 55.94358219970877],[-3.1859671743668145, 55.94368480575177],[-3.1862490821530502, 55.94378741179477],[-3.186530989939286, 55.943890017837774],[-3.1868128977255217, 55.943992623880774],[-3.1870948055117574, 55.944095229923775],[-3.187376713297993, 55.944197835966776],[-3.187658621084229, 55.94430044200978],[-3.1879405288704645, 55.94440304805278],[-3.1882359711963684, 55.944350953599475]
				]
			},"properties":{
		}
	}
		
	]
}