{"type": "FeatureCollection",
	"features"	: [
	{"type": "Feature",
			"geometry"	: {"type": "Polygon", "coordinates": [[[-3.1871804594993587, 55.94448750356385],[-3.187042325735092, 55.944193856370475],[-3.1869766116142273, 55.94420361961219],[-3.186897486448288, 55.94404815847112],[-3.186330199241638, 55.94413227278919],[-3.186405301094055, 55.944296745793935],[-3.1863033771514893, 55.944311015108454],[-3.1863395869731903, 55.94437109637507],[-3.186409324407577, 55.94436208419099],[-3.186425417661667, 55.944397381899876],[-3.186226934194565, 55.94442366740687],[-3.1863945722579956, 55.94457011490493],[-3.1864307820796967, 55.94458588614092],[-3.186488449573517, 55.94459189422912],[-3.1871804594993587, 55.94448750356385],[-3.1871804594993587, 55.94448750356385]]]},
		"properties": {"fill-opacity": 0.5, "fill": "#ff0000"}},
	{"type": "Feature",
			"geometry"	: {"type": "Polygon", "coordinates": [[[-3.186697661876678, 55.943360216655655],[-3.186556175351143, 55.94306656091478],[-3.186345621943474, 55.943098480124895],[-3.1864864379167557, 55.94339251114087],[-3.186697661876678, 55.943360216655655],[-3.186697661876678, 55.943360216655655]]]},
		"properties": {"fill-opacity": 0.5, "fill": "#ff0000"}},
	{"type": "Feature",
			"geometry"	: {"type": "Polygon", "coordinates": [[[-3.189708441495895, 55.94280820210462],[-3.1894750893115997, 55.94233128523903],[-3.1882721185684204, 55.942514542178216],[-3.1885054707527156, 55.94299295887116],[-3.189708441495895, 55.94280820210462],[-3.189708441495895, 55.94280820210462]]]},
		"properties": {"fill-opacity": 0.5, "fill": "#ff0000"}},
	{"type": "Feature",
			"geometry"	: {"type": "Polygon", "coordinates": [[[-3.188078999519348, 55.94541799748307],[-3.187633752822876, 55.94458288209647],[-3.1869176030158997, 55.94470154167527],[-3.187046349048614, 55.94494186375901],[-3.186909556388855, 55.944964393877896],[-3.18678081035614, 55.94481569485101],[-3.1865662336349487, 55.94487727734554],[-3.187113404273987, 55.94555317633777],[-3.1872957944869995, 55.945505112799054],[-3.187832236289978, 55.945460053177314],[-3.188078999519348, 55.94541799748307],[-3.188078999519348, 55.94541799748307]]]},
		"properties": {"fill-opacity": 0.5, "fill": "#ff0000"}},
	{"type": "Feature",
			"geometry"	: {"type": "Polygon", "coordinates": [[[-3.184319, 55.946233], [-3.184319, 55.942617], [-3.192473, 55.942617], [-3.192473, 55.946233]]]},
		"properties": {"fill-opacity": 0}},
	{"type": "Feature",
			"geometry"	: {"type": "Point", "coordinates": [-3.187645, 55.944143]},
			"properties": {"marker-size": "medium", "location": "bound.ends.matter", "rgb-string": "#80ff00", "marker-color": "#80ff00", "marker-symbol": "lighthouse"}
			},
	{"type": "Feature",
			"geometry"	: {"type": "Point", "coordinates": [-3.1875, 55.943874]},
			"properties": {"marker-size": "medium", "location": "begins.spider.drips", "rgb-string": "#80ff00", "marker-color": "#80ff00", "marker-symbol": "lighthouse"}
			},
	{"type": "Feature",
			"geometry"	: {"type": "Point", "coordinates": [-3.187018, 55.943982]},
			"properties": {"marker-size": "medium", "location": "renew.ears.tend", "rgb-string": "#c0ff00", "marker-color": "#c0ff00", "marker-symbol": "lighthouse"}
			},
	{"type": "Feature",
			"geometry"	: {"type": "Point", "coordinates": [-3.186537, 55.944063]},
			"properties": {"marker-size": "medium", "location": "lime.learns.front", "rgb-string": "#ff8000", "marker-color": "#ff8000", "marker-symbol": "danger"}
			},
	{"type": "Feature",
			"geometry"	: {"type": "Point", "coordinates": [-3.187355, 55.943604]},
			"properties": {"marker-size": "medium", "location": "shut.stands.media", "rgb-string": "#80ff00", "marker-color": "#80ff00", "marker-symbol": "lighthouse"}
			},
	{"type": "Feature",
			"geometry"	: {"type": "Point", "coordinates": [-3.187837, 55.943227]},
			"properties": {"marker-size": "medium", "location": "gums.clock.modes", "rgb-string": "#80ff00", "marker-color": "#80ff00", "marker-symbol": "lighthouse"}
			},
	{"type": "Feature",
			"geometry"	: {"type": "Point", "coordinates": [-3.18697, 55.942688]},
			"properties": {"marker-size": "medium", "location": "strut.river.surely", "rgb-string": "#c0ff00", "marker-color": "#c0ff00", "marker-symbol": "lighthouse"}
			},
	{"type": "Feature",
			"geometry"	: {"type": "Point", "coordinates": [-3.185814, 55.943551]},
			"properties": {"marker-size": "medium", "location": "record.sofa.sock", "rgb-string": "#000000", "marker-color": "#000000", "marker-symbol": "cross"}
			},
	{"type": "Feature",
			"geometry"	: {"type": "Point", "coordinates": [-3.185621, 55.943065]},
			"properties": {"marker-size": "medium", "location": "toned.deflection.bland", "rgb-string": "#000000", "marker-color": "#000000", "marker-symbol": "cross"}
			},
	{"type": "Feature",
			"geometry"	: {"type": "Point", "coordinates": [-3.184754, 55.943012]},
			"properties": {"marker-size": "medium", "location": "courier.assume.bill", "rgb-string": "#ffc000", "marker-color": "#ffc000", "marker-symbol": "danger"}
			},
	{"type": "Feature",
			"geometry"	: {"type": "Point", "coordinates": [-3.184947, 55.943443]},
			"properties": {"marker-size": "medium", "location": "sentences.sings.modern", "rgb-string": "#ffc000", "marker-color": "#ffc000", "marker-symbol": "danger"}
			},
	{"type": "Feature",
			"geometry"	: {"type": "Point", "coordinates": [-3.184658, 55.943874]},
			"properties": {"marker-size": "medium", "location": "rider.mile.lime", "rgb-string": "#ffc000", "marker-color": "#ffc000", "marker-symbol": "danger"}
			},
	{"type": "Feature",
			"geometry"	: {"type": "Point", "coordinates": [-3.184513, 55.945302]},
			"properties": {"marker-size": "medium", "location": "settle.title.united", "rgb-string": "#ffc000", "marker-color": "#ffc000", "marker-symbol": "danger"}
			},
	{"type": "Feature",
			"geometry"	: {"type": "Point", "coordinates": [-3.185814, 55.94603]},
			"properties": {"marker-size": "medium", "location": "renew.slows.basket", "rgb-string": "#ff8000", "marker-color": "#ff8000", "marker-symbol": "danger"}
			},
	{"type": "Feature",
			"geometry"	: {"type": "Point", "coordinates": [-3.185621, 55.945761]},
			"properties": {"marker-size": "medium", "location": "shed.desire.muddy", "rgb-string": "#ff8000", "marker-color": "#ff8000", "marker-symbol": "danger"}
			},
	{"type": "Feature",
			"geometry"	: {"type": "Point", "coordinates": [-3.186537, 55.944925]},
			"properties": {"marker-size": "medium", "location": "laws.merit.bleak", "rgb-string": "#ff0000", "marker-color": "#ff0000", "marker-symbol": "danger"}
			},
	{"type": "Feature",
			"geometry"	: {"type": "Point", "coordinates": [-3.186777, 55.944575]},
			"properties": {"marker-size": "medium", "location": "artist.gets.react", "rgb-string": "#000000", "marker-color": "#000000", "marker-symbol": "cross"}
			},
	{"type": "Feature",
			"geometry"	: {"type": "Point", "coordinates": [-3.186729, 55.945168]},
			"properties": {"marker-size": "medium", "location": "dragon.bottle.crisp", "rgb-string": "#ff0000", "marker-color": "#ff0000", "marker-symbol": "danger"}
			},
	{"type": "Feature",
			"geometry"	: {"type": "Point", "coordinates": [-3.186922, 55.945437]},
			"properties": {"marker-size": "medium", "location": "spent.spoon.bolt", "rgb-string": "#ff8000", "marker-color": "#ff8000", "marker-symbol": "danger"}
			},
	{"type": "Feature",
			"geometry"	: {"type": "Point", "coordinates": [-3.188463, 55.945761]},
			"properties": {"marker-size": "medium", "location": "bend.tubes.chops", "rgb-string": "#ff4000", "marker-color": "#ff4000", "marker-symbol": "danger"}
			},
	{"type": "Feature",
			"geometry"	: {"type": "Point", "coordinates": [-3.188801, 55.945437]},
			"properties": {"marker-size": "medium", "location": "shady.soft.phones", "rgb-string": "#000000", "marker-color": "#000000", "marker-symbol": "cross"}
			},
	{"type": "Feature",
			"geometry"	: {"type": "Point", "coordinates": [-3.189186, 55.945087]},
			"properties": {"marker-size": "medium", "location": "number.exist.rate", "rgb-string": "#ffc000", "marker-color": "#ffc000", "marker-symbol": "danger"}
			},
	{"type": "Feature",
			"geometry"	: {"type": "Point", "coordinates": [-3.18933, 55.945653]},
			"properties": {"marker-size": "medium", "location": "museum.spicy.horns", "rgb-string": "#ffc000", "marker-color": "#ffc000", "marker-symbol": "danger"}
			},
	{"type": "Feature",
			"geometry"	: {"type": "Point", "coordinates": [-3.18986, 55.945491]},
			"properties": {"marker-size": "medium", "location": "turkey.limit.ramp", "rgb-string": "#ffc000", "marker-color": "#ffc000", "marker-symbol": "danger"}
			},
	{"type": "Feature",
			"geometry"	: {"type": "Point", "coordinates": [-3.189957, 55.94603]},
			"properties": {"marker-size": "medium", "location": "love.behind.orchestra", "rgb-string": "#ffc000", "marker-color": "#ffc000", "marker-symbol": "danger"}
			},
	{"type": "Feature",
			"geometry"	: {"type": "Point", "coordinates": [-3.191257, 55.945599]},
			"properties": {"marker-size": "medium", "location": "skins.engage.best", "rgb-string": "#ff4000", "marker-color": "#ff4000", "marker-symbol": "danger"}
			},
	{"type": "Feature",
			"geometry"	: {"type": "Point", "coordinates": [-3.192221, 55.945114]},
			"properties": {"marker-size": "medium", "location": "useful.hike.trades", "rgb-string": "#c0ff00", "marker-color": "#c0ff00", "marker-symbol": "lighthouse"}
			},
	{"type": "Feature",
			"geometry"	: {"type": "Point", "coordinates": [-3.191016, 55.944979]},
			"properties": {"marker-size": "medium", "location": "shapes.sheep.nature", "rgb-string": "#ff4000", "marker-color": "#ff4000", "marker-symbol": "danger"}
			},
	{"type": "Feature",
			"geometry"	: {"type": "Point", "coordinates": [-3.191113, 55.943631]},
			"properties": {"marker-size": "medium", "location": "loaf.cheer.slave", "rgb-string": "#00ff00", "marker-color": "#00ff00", "marker-symbol": "lighthouse"}
			},
	{"type": "Feature",
			"geometry"	: {"type": "Point", "coordinates": [-3.190053, 55.943173]},
			"properties": {"marker-size": "medium", "location": "shows.fries.lamp", "rgb-string": "#40ff00", "marker-color": "#40ff00", "marker-symbol": "lighthouse"}
			},
	{"type": "Feature",
			"geometry"	: {"type": "Point", "coordinates": [-3.189234, 55.943012]},
			"properties": {"marker-size": "medium", "location": "region.passes.pencil", "rgb-string": "#80ff00", "marker-color": "#80ff00", "marker-symbol": "lighthouse"}
			},
	{"type": "Feature",
			"geometry"	: {"type": "Point", "coordinates": [-3.189812, 55.94409]},
			"properties": {"marker-size": "medium", "location": "cliff.asleep.wedge", "rgb-string": "#40ff00", "marker-color": "#40ff00", "marker-symbol": "lighthouse"}
			},
	{"type": "Feature",
			"geometry"	: {"type": "Point", "coordinates": [-3.187885, 55.944709]},
			"properties": {"marker-size": "medium", "location": "hurt.green.filer", "rgb-string": "#c0ff00", "marker-color": "#c0ff00", "marker-symbol": "lighthouse"}
			},
	{"type": "Feature",
			"geometry": {"type": "LineString",
				"coordinates": [
				[-3.188396, 55.944425],[-3.1881140922137643, 55.944322393957],[-3.1878321844275286, 55.944219787914],[-3.187550276641293, 55.944117181871],[-3.1874002766412928, 55.943857374249866],[-3.187104834315389, 55.94390946870317],[-3.186809391989485, 55.94396156315647],[-3.1865139496635813, 55.94401365760977],[-3.186795857449817, 55.94391105156677],[-3.1870777652360527, 55.94380844552377],[-3.1873596730222884, 55.94370583948077],[-3.187641580808524, 55.94360323343777],[-3.18792348859476, 55.94350062739477],[-3.187820882551762, 55.94321871960853],[-3.1875610749306267, 55.94306871960853],[-3.187301267309491, 55.942918719608535],[-3.1870414596883556, 55.94276871960854],[-3.18675955190212, 55.94287132565154],[-3.186477644115884, 55.94297393169454],[-3.1862478307829485, 55.943166767977445],[-3.186018017450013, 55.94335960426035],[-3.185788204117077, 55.94355244054326],[-3.1856855980740795, 55.94327053275702],[-3.185582992031082, 55.94298862497078],[-3.185287549705178, 55.94304071942408],[-3.184987549705178, 55.94304071942408],[-3.1846875497051776, 55.94304071942408],[-3.1848375497051777, 55.94330052704522],[-3.18473494366218, 55.943582434831455],[-3.18468284920888, 55.94387787715736],[-3.18463075475558, 55.94417331948327],[-3.18457866030228, 55.944468761809176],[-3.18452656584898, 55.94476420413508],[-3.18447447139568, 55.94505964646099],[-3.18452656584898, 55.9453550887869],[-3.1847863734701156, 55.945505088786895],[-3.185046181091251, 55.94565508878689],[-3.1853059887123867, 55.94580508878689],[-3.1855878964986224, 55.94590769482989],[-3.185847704119758, 55.94605769482989],[-3.185654867836852, 55.94582788149695],[-3.185706962290152, 55.945532439171046],[-3.185759056743452, 55.94523699684514],[-3.186040964529688, 55.94533960288814],[-3.1863228723159236, 55.94544220893114],[-3.1862707778626236, 55.945146766605234],[-3.1862186834093236, 55.94485132427933],[-3.1864484967422593, 55.94504416056223],[-3.1863458906992617, 55.944762252775995],[-3.1866413330251655, 55.94471015832269],[-3.18635942523893, 55.94481276436569],[-3.1865522615218356, 55.94504257769863],[-3.1867450978047414, 55.945272391031565],[-3.186974911137677, 55.94546522731447],[-3.1872047244706128, 55.94565806359738],[-3.187504724470613, 55.94565806359738],[-3.187800166796517, 55.94571015805068],[-3.188100166796517, 55.94571015805068],[-3.188400166796517, 55.94571015805068],[-3.1886599744176527, 55.94556015805068],[-3.1888897877505884, 55.945367321767776],[-3.189119601083524, 55.94517448548487],[-3.1892222071265217, 55.94545639327111],[-3.189372207126522, 55.94571620089224],[-3.1896541149127575, 55.94561359484924],[-3.189913922533893, 55.945463594849244],[-3.189861828080593, 55.94575903717515],[-3.190011828080593, 55.946018844796285],[-3.190293735866829, 55.945916238753284],[-3.1905756436530646, 55.94581363271028],[-3.1908575514393003, 55.94571102666728],[-3.191139459225536, 55.94560842062428],[-3.1914213670117717, 55.94550581458128],[-3.1916811746329072, 55.94535581458128],[-3.191963082419143, 55.94525320853828],[-3.1922228900402785, 55.945103208538285],[-3.1919409822540428, 55.945000602495284],[-3.191645539928139, 55.945052696948586],[-3.191350097602235, 55.94510479140189],[-3.1910902899810996, 55.94495479140189],[-3.1911423844343996, 55.944659349075984],[-3.1910902899810996, 55.94436390675008],[-3.1911423844343996, 55.94406846442417],[-3.1910902899810996, 55.94377302209826],[-3.1908974536981938, 55.94354320876533],[-3.19060201137229, 55.943491114312025],[-3.190409175089384, 55.94326130097909],[-3.1901137327634803, 55.94331339543239],[-3.1898182904375765, 55.94326130097909],[-3.1895228481116726, 55.943209206525786],[-3.189227405785769, 55.943157112072484],[-3.1895228481116726, 55.94310501761918],[-3.1898182904375765, 55.94305292316588],[-3.1897661959842765, 55.94334836549179],[-3.1897141015309765, 55.94364380781769],[-3.1896620070776764, 55.9439392501436],[-3.189921814698812, 55.9440892501436],[-3.189626372372908, 55.9441413445969],[-3.1893309300470043, 55.9441934390502],[-3.1890354877211005, 55.944245533503505],[-3.1887400453951966, 55.94429762795681],[-3.188444603069293, 55.94434972241011],[-3.188149160743389, 55.94440181686341],[-3.187853718417485, 55.944453911316714],[-3.1879563244604827, 55.94473581910295],[-3.1881861377934184, 55.94492865538586],[-3.1881340433401184, 55.94463321305995],[-3.1880819488868184, 55.944337770734045],[-3.188363856673054, 55.944440376777045]
				]
			},"properties":{
		}
	}
		
	]
}