{"type": "FeatureCollection",
	"features"	: [
	{"type": "Feature",
			"geometry"	: {"type": "Point", "coordinates": [-3.189812, 55.94409]},
			"properties": {"marker-size": "medium", "location": "cliff.asleep.wedge", "rgb-string": "#40ff00", "marker-color": "#40ff00", "marker-symbol": "lighthouse"}
			},
	{"type": "Feature",
			"geometry"	: {"type": "Point", "coordinates": [-3.189234, 55.943012]},
			"properties": {"marker-size": "medium", "location": "region.passes.pencil", "rgb-string": "#80ff00", "marker-color": "#80ff00", "marker-symbol": "lighthouse"}
			},
	{"type": "Feature",
			"geometry"	: {"type": "Point", "coordinates": [-3.190053, 55.943173]},
			"properties": {"marker-size": "medium", "location": "shows.fries.lamp", "rgb-string": "#40ff00", "marker-color": "#40ff00", "marker-symbol": "lighthouse"}
			},
	{"type": "Feature",
			"geometry"	: {"type": "Point", "coordinates": [-3.191113, 55.943631]},
			"properties": {"marker-size": "medium", "location": "loaf.cheer.slave", "rgb-string": "#00ff00", "marker-color": "#00ff00", "marker-symbol": "lighthouse"}
			},
	{"type": "Feature",
			"geometry"	: {"type": "Point", "coordinates": [-3.191016, 55.944979]},
			"properties": {"marker-size": "medium", "location": "shapes.sheep.nature", "rgb-string": "#ff4000", "marker-color": "#ff4000", "marker-symbol": "danger"}
			},
	{"type": "Feature",
			"geometry"	: {"type": "Point", "coordinates": [-3.192221, 55.945114]},
			"properties": {"marker-size": "medium", "location": "useful.hike.trades", "rgb-string": "#c0ff00", "marker-color": "#c0ff00", "marker-symbol": "lighthouse"}
			},
	{"type": "Feature",
			"geometry"	: {"type": "Point", "coordinates": [-3.191257, 55.945599]},
			"properties": {"marker-size": "medium", "location": "skins.engage.best", "rgb-string": "#ff4000", "marker-color": "#ff4000", "marker-symbol": "danger"}
			},
	{"type": "Feature",
			"geometry"	: {"type": "Point", "coordinates": [-3.189957, 55.94603]},
			"properties": {"marker-size": "medium", "location": "love.behind.orchestra", "rgb-string": "#ffc000", "marker-color": "#ffc000", "marker-symbol": "danger"}
			},
	{"type": "Feature",
			"geometry"	: {"type": "Point", "coordinates": [-3.18986, 55.945491]},
			"properties": {"marker-size": "medium", "location": "turkey.limit.ramp", "rgb-string": "#ffc000", "marker-color": "#ffc000", "marker-symbol": "danger"}
			},
	{"type": "Feature",
			"geometry"	: {"type": "Point", "coordinates": [-3.18933, 55.945653]},
			"properties": {"marker-size": "medium", "location": "museum.spicy.horns", "rgb-string": "#ffc000", "marker-color": "#ffc000", "marker-symbol": "danger"}
			},
	{"type": "Feature",
			"geometry"	: {"type": "Point", "coordinates": [-3.189186, 55.945087]},
			"properties": {"marker-size": "medium", "location": "number.exist.rate", "rgb-string": "#ffc000", "marker-color": "#ffc000", "marker-symbol": "danger"}
			},
	{"type": "Feature",
			"geometry"	: {"type": "Point", "coordinates": [-3.188801, 55.945437]},
			"properties": {"marker-size": "medium", "location": "shady.soft.phones", "rgb-string": "#000000", "marker-color": "#000000", "marker-symbol": "cross"}
			},
	{"type": "Feature",
			"geometry"	: {"type": "Point", "coordinates": [-3.188463, 55.945761]},
			"properties": {"marker-size": "medium", "location": "bend.tubes.chops", "rgb-string": "#ff4000", "marker-color": "#ff4000", "marker-symbol": "danger"}
			},
	{"type": "Feature",
			"geometry"	: {"type": "Point", "coordinates": [-3.186922, 55.945437]},
			"properties": {"marker-size": "medium", "location": "spent.spoon.bolt", "rgb-string": "#ff8000", "marker-color": "#ff8000", "marker-symbol": "danger"}
			},
	{"type": "Feature",
			"geometry"	: {"type": "Point", "coordinates": [-3.186729, 55.945168]},
			"properties": {"marker-size": "medium", "location": "dragon.bottle.crisp", "rgb-string": "#ff0000", "marker-color": "#ff0000", "marker-symbol": "danger"}
			},
	{"type": "Feature",
			"geometry"	: {"type": "Point", "coordinates": [-3.186777, 55.944575]},
			"properties": {"marker-size": "medium", "location": "artist.gets.react", "rgb-string": "#000000", "marker-color": "#000000", "marker-symbol": "cross"}
			},
	{"type": "Feature",
			"geometry"	: {"type": "Point", "coordinates": [-3.186537, 55.944925]},
			"properties": {"marker-size": "medium", "location": "laws.merit.bleak", "rgb-string": "#ff0000", "marker-color": "#ff0000", "marker-symbol": "danger"}
			},
	{"type": "Feature",
			"geometry"	: {"type": "Point", "coordinates": [-3.185814, 55.94603]},
			"properties": {"marker-size": "medium", "location": "renew.slows.basket", "rgb-string": "#ff8000", "marker-color": "#ff8000", "marker-symbol": "danger"}
			},
	{"type": "Feature",
			"geometry"	: {"type": "Point", "coordinates": [-3.185621, 55.945761]},
			"properties": {"marker-size": "medium", "location": "shed.desire.muddy", "rgb-string": "#ff8000", "marker-color": "#ff8000", "marker-symbol": "danger"}
			},
	{"type": "Feature",
			"geometry"	: {"type": "Point", "coordinates": [-3.184513, 55.945302]},
			"properties": {"marker-size": "medium", "location": "settle.title.united", "rgb-string": "#ffc000", "marker-color": "#ffc000", "marker-symbol": "danger"}
			},
	{"type": "Feature",
			"geometry"	: {"type": "Point", "coordinates": [-3.184658, 55.943874]},
			"properties": {"marker-size": "medium", "location": "rider.mile.lime", "rgb-string": "#ffc000", "marker-color": "#ffc000", "marker-symbol": "danger"}
			},
	{"type": "Feature",
			"geometry"	: {"type": "Point", "coordinates": [-3.184947, 55.943443]},
			"properties": {"marker-size": "medium", "location": "sentences.sings.modern", "rgb-string": "#ffc000", "marker-color": "#ffc000", "marker-symbol": "danger"}
			},
	{"type": "Feature",
			"geometry"	: {"type": "Point", "coordinates": [-3.184754, 55.943012]},
			"properties": {"marker-size": "medium", "location": "courier.assume.bill", "rgb-string": "#ffc000", "marker-color": "#ffc000", "marker-symbol": "danger"}
			},
	{"type": "Feature",
			"geometry"	: {"type": "Point", "coordinates": [-3.185621, 55.943065]},
			"properties": {"marker-size": "medium", "location": "toned.deflection.bland", "rgb-string": "#000000", "marker-color": "#000000", "marker-symbol": "cross"}
			},
	{"type": "Feature",
			"geometry"	: {"type": "Point", "coordinates": [-3.185814, 55.943551]},
			"properties": {"marker-size": "medium", "location": "record.sofa.sock", "rgb-string": "#000000", "marker-color": "#000000", "marker-symbol": "cross"}
			},
	{"type": "Feature",
			"geometry"	: {"type": "Point", "coordinates": [-3.18697, 55.942688]},
			"properties": {"marker-size": "medium", "location": "strut.river.surely", "rgb-string": "#c0ff00", "marker-color": "#c0ff00", "marker-symbol": "lighthouse"}
			},
	{"type": "Feature",
			"geometry"	: {"type": "Point", "coordinates": [-3.187837, 55.943227]},
			"properties": {"marker-size": "medium", "location": "gums.clock.modes", "rgb-string": "#80ff00", "marker-color": "#80ff00", "marker-symbol": "lighthouse"}
			},
	{"type": "Feature",
			"geometry"	: {"type": "Point", "coordinates": [-3.187355, 55.943604]},
			"properties": {"marker-size": "medium", "location": "shut.stands.media", "rgb-string": "#80ff00", "marker-color": "#80ff00", "marker-symbol": "lighthouse"}
			},
	{"type": "Feature",
			"geometry"	: {"type": "Point", "coordinates": [-3.186537, 55.944063]},
			"properties": {"marker-size": "medium", "location": "lime.learns.front", "rgb-string": "#ff8000", "marker-color": "#ff8000", "marker-symbol": "danger"}
			},
	{"type": "Feature",
			"geometry"	: {"type": "Point", "coordinates": [-3.187018, 55.943982]},
			"properties": {"marker-size": "medium", "location": "renew.ears.tend", "rgb-string": "#c0ff00", "marker-color": "#c0ff00", "marker-symbol": "lighthouse"}
			},
	{"type": "Feature",
			"geometry"	: {"type": "Point", "coordinates": [-3.1875, 55.943874]},
			"properties": {"marker-size": "medium", "location": "begins.spider.drips", "rgb-string": "#80ff00", "marker-color": "#80ff00", "marker-symbol": "lighthouse"}
			},
	{"type": "Feature",
			"geometry"	: {"type": "Point", "coordinates": [-3.187645, 55.944143]},
			"properties": {"marker-size": "medium", "location": "bound.ends.matter", "rgb-string": "#80ff00", "marker-color": "#80ff00", "marker-symbol": "lighthouse"}
			},
	{"type": "Feature",
			"geometry"	: {"type": "Point", "coordinates": [-3.187885, 55.944709]},
			"properties": {"marker-size": "medium", "location": "hurt.green.filer", "rgb-string": "#c0ff00", "marker-color": "#c0ff00", "marker-symbol": "lighthouse"}
			},
	{"type": "Feature",
			"geometry": {"type": "LineString",
				"coordinates": [
				[-3.188396, 55.944425],[-3.188691442325904, 55.9443729055467],[-3.1889868846518077, 55.9443208110934],[-3.1892823269777115, 55.944268716640096],[-3.1895777693036154, 55.944216622186794],[-3.189807582636551, 55.94402378590389],[-3.1895477750154155, 55.94387378590389],[-3.18931796168248, 55.94368094962098],[-3.18946796168248, 55.94342114199985],[-3.189186053896244, 55.94331853595685],[-3.189481496222148, 55.943266441503546],[-3.189186053896244, 55.943214347050244],[-3.189481496222148, 55.94316225259694],[-3.1897413038432836, 55.943012252596944],[-3.1894413038432834, 55.943012252596944],[-3.189141303843283, 55.943012252596944],[-3.1894413038432834, 55.943012252596944],[-3.1897413038432836, 55.943012252596944],[-3.1900413038432838, 55.943012252596944],[-3.190191303843284, 55.94327206021808],[-3.1904867461691877, 55.943219965764776],[-3.1906795824520935, 55.94344977909771],[-3.1909750247779973, 55.943501873551014],[-3.1910271192312973, 55.94379731587692],[-3.1909750247779973, 55.94409275820283],[-3.1910271192312973, 55.944388200528735],[-3.1909750247779973, 55.94468364285464],[-3.1910271192312973, 55.94497908518055],[-3.191322561557201, 55.94492699072725],[-3.1915823691783367, 55.945076990727244],[-3.1918778115042405, 55.94502489627394],[-3.192137619125376, 55.94517489627394],[-3.1918778115042405, 55.94532489627394],[-3.191595903718005, 55.94542750231694],[-3.1913360960968693, 55.94557750231694],[-3.1910541883106336, 55.94568010835994],[-3.190772280524398, 55.94578271440294],[-3.190490372738162, 55.94588532044594],[-3.1902084649519264, 55.94598792648894],[-3.1899130226260226, 55.94604002094224],[-3.1899651170793226, 55.945744578616335],[-3.1898151170793225, 55.9454847709952],[-3.189533209293087, 55.9455873770382],[-3.189251301506851, 55.9456899830812],[-3.1891486954638535, 55.945408075294964],[-3.189251301506851, 55.945126167508725],[-3.1889914938857156, 55.94527616750872],[-3.18876168055278, 55.94546900379163],[-3.188531867219844, 55.945661840074536],[-3.188231867219844, 55.945661840074536],[-3.187931867219844, 55.945661840074536],[-3.1876318672198436, 55.945661840074536],[-3.1873364248939398, 55.94560974562123],[-3.187040982568036, 55.94555765116793],[-3.18684814628513, 55.945327837834995],[-3.1866553100022244, 55.94509802450206],[-3.1864624737193186, 55.94486821116912],[-3.1863124737193185, 55.94460840354799],[-3.1865053100022243, 55.944838216880925],[-3.18678721778846, 55.944735610837924],[-3.1865274101673244, 55.94488561083792],[-3.186267602546189, 55.94503561083792],[-3.186319696999489, 55.94533105316383],[-3.186371791452789, 55.94562649548973],[-3.1860717914527887, 55.94562649548973],[-3.1861238859060887, 55.94592193781564],[-3.185828443580185, 55.94597403226894],[-3.185635607297279, 55.94574421893601],[-3.1853536995110434, 55.945641612893006],[-3.1850717917248077, 55.945539006850005],[-3.184789883938572, 55.945436400807004],[-3.1845300763174365, 55.94528640080701],[-3.1845821707707365, 55.9449909584811],[-3.1846342652240365, 55.94469551615519],[-3.1846863596773365, 55.944400073829286],[-3.1846342652240365, 55.94410463150338],[-3.1846863596773365, 55.94380918917747],[-3.1848791959602423, 55.943579375844536],[-3.1848271015069423, 55.94328393351863],[-3.1847244954639446, 55.94300202573239],[-3.185024495463945, 55.94300202573239],[-3.185324495463945, 55.94300202573239],[-3.1856064032501807, 55.94310463177539],[-3.1857090092931784, 55.94338653956163],[-3.185968816914314, 55.94323653956163],[-3.1862286245354494, 55.943086539561634],[-3.186488432156585, 55.942936539561636],[-3.1867482397777205, 55.94278653956164],[-3.187030147563956, 55.94268393351864],[-3.1872899551850917, 55.942833933518635],[-3.1875197685180274, 55.94302676980154],[-3.187779576139163, 55.94317676980154],[-3.187484133813259, 55.94322886425484],[-3.1875867398562567, 55.94351077204108],[-3.187291297530353, 55.94356286649438],[-3.186995855204449, 55.943614960947684],[-3.186700412878545, 55.94366705540099],[-3.1865075765956394, 55.94389686873392],[-3.1868030189215433, 55.943948963187225],[-3.187098461247447, 55.94400105764053],[-3.1873984612474473, 55.94400105764053],[-3.187658268868583, 55.944151057640525],[-3.1877608749115804, 55.94443296542676],[-3.187863480954578, 55.944714873213],[-3.1880932942875138, 55.94490770949591],[-3.1880411998342137, 55.94461226717],[-3.1883010074553493, 55.94476226717],[-3.1882489130020493, 55.94446682484409]
				]
			},"properties":{
		}
	}
		
	]
}