{"type": "FeatureCollection",
	"features"	: [
	{"type": "Feature",
			"geometry"	: {"type": "Polygon", "coordinates": [[[-3.1871804594993587, 55.94448750356385],[-3.187042325735092, 55.944193856370475],[-3.1869766116142273, 55.94420361961219],[-3.186897486448288, 55.94404815847112],[-3.186330199241638, 55.94413227278919],[-3.186405301094055, 55.944296745793935],[-3.1863033771514893, 55.944311015108454],[-3.1863395869731903, 55.94437109637507],[-3.186409324407577, 55.94436208419099],[-3.186425417661667, 55.944397381899876],[-3.186226934194565, 55.94442366740687],[-3.1863945722579956, 55.94457011490493],[-3.1864307820796967, 55.94458588614092],[-3.186488449573517, 55.94459189422912],[-3.1871804594993587, 55.94448750356385],[-3.1871804594993587, 55.94448750356385]]]},
		"properties": {"fill-opacity": 0.5, "fill": "#ff0000"}},
	{"type": "Feature",
			"geometry"	: {"type": "Polygon", "coordinates": [[[-3.186697661876678, 55.943360216655655],[-3.186556175351143, 55.94306656091478],[-3.186345621943474, 55.943098480124895],[-3.1864864379167557, 55.94339251114087],[-3.186697661876678, 55.943360216655655],[-3.186697661876678, 55.943360216655655]]]},
		"properties": {"fill-opacity": 0.5, "fill": "#ff0000"}},
	{"type": "Feature",
			"geometry"	: {"type": "Polygon", "coordinates": [[[-3.189708441495895, 55.94280820210462],[-3.1894750893115997, 55.94233128523903],[-3.1882721185684204, 55.942514542178216],[-3.1885054707527156, 55.94299295887116],[-3.189708441495895, 55.94280820210462],[-3.189708441495895, 55.94280820210462]]]},
		"properties": {"fill-opacity": 0.5, "fill": "#ff0000"}},
	{"type": "Feature",
			"geometry"	: {"type": "Polygon", "coordinates": [[[-3.188078999519348, 55.94541799748307],[-3.187633752822876, 55.94458288209647],[-3.1869176030158997, 55.94470154167527],[-3.187046349048614, 55.94494186375901],[-3.186909556388855, 55.944964393877896],[-3.18678081035614, 55.94481569485101],[-3.1865662336349487, 55.94487727734554],[-3.187113404273987, 55.94555317633777],[-3.1872957944869995, 55.945505112799054],[-3.187832236289978, 55.945460053177314],[-3.188078999519348, 55.94541799748307],[-3.188078999519348, 55.94541799748307]]]},
		"properties": {"fill-opacity": 0.5, "fill": "#ff0000"}},
	{"type": "Feature",
			"geometry"	: {"type": "Polygon", "coordinates": [[[-3.184319, 55.946233], [-3.184319, 55.942617], [-3.192473, 55.942617], [-3.192473, 55.946233]]]},
		"properties": {"fill-opacity": 0}},
	{"type": "Feature",
			"geometry"	: {"type": "Point", "coordinates": [-3.190294, 55.943712]},
			"properties": {"marker-size": "medium", "location": "sculpture.shot.melon", "rgb-string": "#40ff00", "marker-color": "#40ff00", "marker-symbol": "lighthouse"}
			},
	{"type": "Feature",
			"geometry"	: {"type": "Point", "coordinates": [-3.189812, 55.94409]},
			"properties": {"marker-size": "medium", "location": "cliff.asleep.wedge", "rgb-string": "#40ff00", "marker-color": "#40ff00", "marker-symbol": "lighthouse"}
			},
	{"type": "Feature",
			"geometry"	: {"type": "Point", "coordinates": [-3.189138, 55.944197]},
			"properties": {"marker-size": "medium", "location": "spoon.invest.every", "rgb-string": "#40ff00", "marker-color": "#40ff00", "marker-symbol": "lighthouse"}
			},
	{"type": "Feature",
			"geometry"	: {"type": "Point", "coordinates": [-3.188704, 55.943389]},
			"properties": {"marker-size": "medium", "location": "system.speak.guard", "rgb-string": "#00ff00", "marker-color": "#00ff00", "marker-symbol": "lighthouse"}
			},
	{"type": "Feature",
			"geometry"	: {"type": "Point", "coordinates": [-3.188608, 55.943119]},
			"properties": {"marker-size": "medium", "location": "groups.ideas.script", "rgb-string": "#40ff00", "marker-color": "#40ff00", "marker-symbol": "lighthouse"}
			},
	{"type": "Feature",
			"geometry"	: {"type": "Point", "coordinates": [-3.188126, 55.943793]},
			"properties": {"marker-size": "medium", "location": "cubs.trucks.help", "rgb-string": "#40ff00", "marker-color": "#40ff00", "marker-symbol": "lighthouse"}
			},
	{"type": "Feature",
			"geometry"	: {"type": "Point", "coordinates": [-3.188271, 55.944063]},
			"properties": {"marker-size": "medium", "location": "rush.crown.link", "rgb-string": "#00ff00", "marker-color": "#00ff00", "marker-symbol": "lighthouse"}
			},
	{"type": "Feature",
			"geometry"	: {"type": "Point", "coordinates": [-3.187789, 55.944386]},
			"properties": {"marker-size": "medium", "location": "thank.salsa.brain", "rgb-string": "#40ff00", "marker-color": "#40ff00", "marker-symbol": "lighthouse"}
			},
	{"type": "Feature",
			"geometry"	: {"type": "Point", "coordinates": [-3.187307, 55.944494]},
			"properties": {"marker-size": "medium", "location": "only.fairly.rift", "rgb-string": "#ffc000", "marker-color": "#ffc000", "marker-symbol": "danger"}
			},
	{"type": "Feature",
			"geometry"	: {"type": "Point", "coordinates": [-3.187355, 55.943604]},
			"properties": {"marker-size": "medium", "location": "shut.stands.media", "rgb-string": "#80ff00", "marker-color": "#80ff00", "marker-symbol": "lighthouse"}
			},
	{"type": "Feature",
			"geometry"	: {"type": "Point", "coordinates": [-3.18697, 55.942688]},
			"properties": {"marker-size": "medium", "location": "strut.river.surely", "rgb-string": "#ff4000", "marker-color": "#ff4000", "marker-symbol": "danger"}
			},
	{"type": "Feature",
			"geometry"	: {"type": "Point", "coordinates": [-3.187018, 55.943982]},
			"properties": {"marker-size": "medium", "location": "renew.ears.tend", "rgb-string": "#80ff00", "marker-color": "#80ff00", "marker-symbol": "lighthouse"}
			},
	{"type": "Feature",
			"geometry"	: {"type": "Point", "coordinates": [-3.186729, 55.945168]},
			"properties": {"marker-size": "medium", "location": "dragon.bottle.crisp", "rgb-string": "#ffc000", "marker-color": "#ffc000", "marker-symbol": "danger"}
			},
	{"type": "Feature",
			"geometry"	: {"type": "Point", "coordinates": [-3.186103, 55.944251]},
			"properties": {"marker-size": "medium", "location": "organs.shape.fantastic", "rgb-string": "#ff4000", "marker-color": "#ff4000", "marker-symbol": "danger"}
			},
	{"type": "Feature",
			"geometry"	: {"type": "Point", "coordinates": [-3.186007, 55.943901]},
			"properties": {"marker-size": "medium", "location": "teams.mild.played", "rgb-string": "#ffc000", "marker-color": "#ffc000", "marker-symbol": "danger"}
			},
	{"type": "Feature",
			"geometry"	: {"type": "Point", "coordinates": [-3.185525, 55.943982]},
			"properties": {"marker-size": "medium", "location": "manliness.poem.cliff", "rgb-string": "#ffc000", "marker-color": "#ffc000", "marker-symbol": "danger"}
			},
	{"type": "Feature",
			"geometry"	: {"type": "Point", "coordinates": [-3.184947, 55.943443]},
			"properties": {"marker-size": "medium", "location": "sentences.sings.modern", "rgb-string": "#ffc000", "marker-color": "#ffc000", "marker-symbol": "danger"}
			},
	{"type": "Feature",
			"geometry"	: {"type": "Point", "coordinates": [-3.185236, 55.944575]},
			"properties": {"marker-size": "medium", "location": "acid.chair.butter", "rgb-string": "#ff8000", "marker-color": "#ff8000", "marker-symbol": "danger"}
			},
	{"type": "Feature",
			"geometry"	: {"type": "Point", "coordinates": [-3.184899, 55.944736]},
			"properties": {"marker-size": "medium", "location": "slide.leads.stores", "rgb-string": "#000000", "marker-color": "#000000", "marker-symbol": "cross"}
			},
	{"type": "Feature",
			"geometry"	: {"type": "Point", "coordinates": [-3.184513, 55.945302]},
			"properties": {"marker-size": "medium", "location": "settle.title.united", "rgb-string": "#ff4000", "marker-color": "#ff4000", "marker-symbol": "danger"}
			},
	{"type": "Feature",
			"geometry"	: {"type": "Point", "coordinates": [-3.185621, 55.945761]},
			"properties": {"marker-size": "medium", "location": "shed.desire.muddy", "rgb-string": "#ff4000", "marker-color": "#ff4000", "marker-symbol": "danger"}
			},
	{"type": "Feature",
			"geometry"	: {"type": "Point", "coordinates": [-3.185814, 55.94603]},
			"properties": {"marker-size": "medium", "location": "renew.slows.basket", "rgb-string": "#ff0000", "marker-color": "#ff0000", "marker-symbol": "danger"}
			},
	{"type": "Feature",
			"geometry"	: {"type": "Point", "coordinates": [-3.186296, 55.945761]},
			"properties": {"marker-size": "medium", "location": "posts.kicked.universally", "rgb-string": "#ff4000", "marker-color": "#ff4000", "marker-symbol": "danger"}
			},
	{"type": "Feature",
			"geometry"	: {"type": "Point", "coordinates": [-3.188319, 55.945518]},
			"properties": {"marker-size": "medium", "location": "skills.less.herb", "rgb-string": "#000000", "marker-color": "#000000", "marker-symbol": "cross"}
			},
	{"type": "Feature",
			"geometry"	: {"type": "Point", "coordinates": [-3.188897, 55.945707]},
			"properties": {"marker-size": "medium", "location": "stops.else.chats", "rgb-string": "#ff0000", "marker-color": "#ff0000", "marker-symbol": "danger"}
			},
	{"type": "Feature",
			"geometry"	: {"type": "Point", "coordinates": [-3.191161, 55.945976]},
			"properties": {"marker-size": "medium", "location": "simple.rust.audio", "rgb-string": "#000000", "marker-color": "#000000", "marker-symbol": "cross"}
			},
	{"type": "Feature",
			"geometry"	: {"type": "Point", "coordinates": [-3.191065, 55.94444]},
			"properties": {"marker-size": "medium", "location": "paying.crowd.weep", "rgb-string": "#40ff00", "marker-color": "#40ff00", "marker-symbol": "lighthouse"}
			},
	{"type": "Feature",
			"geometry"	: {"type": "Point", "coordinates": [-3.191113, 55.943901]},
			"properties": {"marker-size": "medium", "location": "spicy.bunch.shady", "rgb-string": "#00ff00", "marker-color": "#00ff00", "marker-symbol": "lighthouse"}
			},
	{"type": "Feature",
			"geometry"	: {"type": "Point", "coordinates": [-3.191161, 55.943362]},
			"properties": {"marker-size": "medium", "location": "meal.feed.large", "rgb-string": "#40ff00", "marker-color": "#40ff00", "marker-symbol": "lighthouse"}
			},
	{"type": "Feature",
			"geometry"	: {"type": "Point", "coordinates": [-3.191161, 55.943065]},
			"properties": {"marker-size": "medium", "location": "else.urban.museum", "rgb-string": "#00ff00", "marker-color": "#00ff00", "marker-symbol": "lighthouse"}
			},
	{"type": "Feature",
			"geometry"	: {"type": "Point", "coordinates": [-3.191161, 55.942742]},
			"properties": {"marker-size": "medium", "location": "along.spill.limp", "rgb-string": "#00ff00", "marker-color": "#00ff00", "marker-symbol": "lighthouse"}
			},
	{"type": "Feature",
			"geometry"	: {"type": "Point", "coordinates": [-3.190727, 55.943092]},
			"properties": {"marker-size": "medium", "location": "relate.chill.vest", "rgb-string": "#00ff00", "marker-color": "#00ff00", "marker-symbol": "lighthouse"}
			},
	{"type": "Feature",
			"geometry"	: {"type": "Point", "coordinates": [-3.189764, 55.942661]},
			"properties": {"marker-size": "medium", "location": "hooked.shine.third", "rgb-string": "#40ff00", "marker-color": "#40ff00", "marker-symbol": "lighthouse"}
			},
	{"type": "Feature",
			"geometry": {"type": "LineString",
				"coordinates": [
				[-3.188396, 55.944425],[-3.188691442325904, 55.9443729055467],[-3.1889868846518077, 55.9443208110934],[-3.1892823269777115, 55.944268716640096],[-3.1895777693036154, 55.944216622186794],[-3.189807582636551, 55.94402378590389],[-3.1900373959694868, 55.94383094962098],[-3.1902672093024225, 55.943638113338075],[-3.1900743730195167, 55.94386792667101],[-3.189844559686581, 55.94406076295392],[-3.189549117360677, 55.94411285740722],[-3.1892536750347733, 55.94416495186052],[-3.1890608387518675, 55.943935138527586],[-3.1888680024689617, 55.94370532519465],[-3.1887180024689616, 55.943445517573515],[-3.1885680024689615, 55.94318570995238],[-3.1882725601430577, 55.94323780440568],[-3.1883246545963577, 55.94353324673159],[-3.188029212270454, 55.94358534118489],[-3.1881318183134515, 55.94386724897113],[-3.1883246545963573, 55.94409706230407],[-3.1880427468101216, 55.94419966834707],[-3.187760839023886, 55.94430227439007],[-3.18747893123765, 55.94440488043307],[-3.1872491179047144, 55.94421204415016],[-3.1870193045717787, 55.94401920786726],[-3.187319304571779, 55.94401920786726],[-3.187169304571779, 55.94375940024612],[-3.1874512123580145, 55.94365679420312],[-3.1873012123580144, 55.94339698658199],[-3.1871512123580144, 55.94313717896085],[-3.1870012123580143, 55.94287737133972],[-3.186851212358014, 55.94313717896085],[-3.1870012123580143, 55.94339698658199],[-3.1871512123580144, 55.94365679420312],[-3.1873012123580144, 55.943916601824256],[-3.1870057700321106, 55.94396869627756],[-3.1872355833650463, 55.944161532560464],[-3.187465396697982, 55.94435436884337],[-3.1872055890768465, 55.94450436884337],[-3.186945781455711, 55.944654368843366],[-3.1866859738345754, 55.944804368843364],[-3.18642616621344, 55.94495436884336],[-3.1866190024963457, 55.9451841821763],[-3.1864690024963456, 55.944924374555164],[-3.1863190024963455, 55.94466456693403],[-3.1861690024963454, 55.944404759312896],[-3.1860663964533478, 55.94412285152666],[-3.1860143020000478, 55.94382740920075],[-3.185718859674144, 55.94387950365405],[-3.18542341734824, 55.943931598107355],[-3.1852305810653343, 55.94370178477442],[-3.1850377447824285, 55.94347197144148],[-3.1850898392357285, 55.94376741376739],[-3.1851419336890285, 55.944062856093296],[-3.1851940281423285, 55.9443582984192],[-3.1852461225956286, 55.94465374074511],[-3.185016309262693, 55.94484657702802],[-3.184786495929757, 55.94503941331092],[-3.1845566825968215, 55.94523224959383],[-3.184816490217957, 55.94538224959383],[-3.1850762978390925, 55.945532249593825],[-3.1853582056253282, 55.945634855636825],[-3.1856180132464638, 55.94578485563682],[-3.1858108495293695, 55.94601466896976],[-3.1861062918552734, 55.94596257451646],[-3.1864017341811772, 55.945910480063155],[-3.186697176507081, 55.94585838560985],[-3.186992618832985, 55.94580629115655],[-3.1872880611588887, 55.94575419670325],[-3.1875835034847926, 55.945702102249946],[-3.1878789458106964, 55.945650007796644],[-3.188160853596932, 55.94554740175364],[-3.188456295922836, 55.94549530730034],[-3.188606295922836, 55.945755114921475],[-3.18890173824874, 55.94570302046817],[-3.18920173824874, 55.94570302046817],[-3.1895017382487403, 55.94570302046817],[-3.1898017382487405, 55.94570302046817],[-3.1901017382487407, 55.94570302046817],[-3.190401738248741, 55.94570302046817],[-3.1906615458698764, 55.94585302046817],[-3.1909615458698766, 55.94585302046817],[-3.1911913592028123, 55.94604585675108],[-3.1911392647495123, 55.94575041442517],[-3.1910871702962122, 55.94545497209926],[-3.1910350758429122, 55.945159529773356],[-3.1910871702962122, 55.94486408744745],[-3.1910350758429122, 55.94456864512154],[-3.1910871702962122, 55.944273202795635],[-3.1911392647495123, 55.94397776046973],[-3.1911913592028123, 55.94368231814382],[-3.1911392647495123, 55.943386875817914],[-3.1911913592028123, 55.94309143349201],[-3.1911392647495123, 55.9427959911661],[-3.1909464284666065, 55.94302580449904],[-3.1906509861407026, 55.94307789895234],[-3.190421172807767, 55.94288506266943],[-3.1901913594748312, 55.94269222638653],[-3.1899094516885955, 55.94279483242953],[-3.1897594516885954, 55.94305464005066],[-3.1896094516885953, 55.943314447671796],[-3.1894594516885952, 55.94357425529293],[-3.189309451688595, 55.943834062914064],[-3.189159451688595, 55.9440938705352],[-3.188864009362691, 55.944041776081896],[-3.188564009362691, 55.944041776081896],[-3.1886666154056886, 55.944323683868134]
				]
			},"properties":{
		}
	}
		
	]
}