{"type": "FeatureCollection",
	"features"	: [
	{"type": "Feature",
			"geometry"	: {"type": "Polygon", "coordinates": [[[-3.1871804594993587, 55.94448750356385],[-3.187042325735092, 55.944193856370475],[-3.1869766116142273, 55.94420361961219],[-3.186897486448288, 55.94404815847112],[-3.186330199241638, 55.94413227278919],[-3.186405301094055, 55.944296745793935],[-3.1863033771514893, 55.944311015108454],[-3.1863395869731903, 55.94437109637507],[-3.186409324407577, 55.94436208419099],[-3.186425417661667, 55.944397381899876],[-3.186226934194565, 55.94442366740687],[-3.1863945722579956, 55.94457011490493],[-3.1864307820796967, 55.94458588614092],[-3.186488449573517, 55.94459189422912],[-3.1871804594993587, 55.94448750356385],[-3.1871804594993587, 55.94448750356385]]]},
		"properties": {"fill-opacity": 0.5, "fill": "#ff0000"}},
	{"type": "Feature",
			"geometry"	: {"type": "Polygon", "coordinates": [[[-3.186697661876678, 55.943360216655655],[-3.186556175351143, 55.94306656091478],[-3.186345621943474, 55.943098480124895],[-3.1864864379167557, 55.94339251114087],[-3.186697661876678, 55.943360216655655],[-3.186697661876678, 55.943360216655655]]]},
		"properties": {"fill-opacity": 0.5, "fill": "#ff0000"}},
	{"type": "Feature",
			"geometry"	: {"type": "Polygon", "coordinates": [[[-3.189708441495895, 55.94280820210462],[-3.1894750893115997, 55.94233128523903],[-3.1882721185684204, 55.942514542178216],[-3.1885054707527156, 55.94299295887116],[-3.189708441495895, 55.94280820210462],[-3.189708441495895, 55.94280820210462]]]},
		"properties": {"fill-opacity": 0.5, "fill": "#ff0000"}},
	{"type": "Feature",
			"geometry"	: {"type": "Polygon", "coordinates": [[[-3.188078999519348, 55.94541799748307],[-3.187633752822876, 55.94458288209647],[-3.1869176030158997, 55.94470154167527],[-3.187046349048614, 55.94494186375901],[-3.186909556388855, 55.944964393877896],[-3.18678081035614, 55.94481569485101],[-3.1865662336349487, 55.94487727734554],[-3.187113404273987, 55.94555317633777],[-3.1872957944869995, 55.945505112799054],[-3.187832236289978, 55.945460053177314],[-3.188078999519348, 55.94541799748307],[-3.188078999519348, 55.94541799748307]]]},
		"properties": {"fill-opacity": 0.5, "fill": "#ff0000"}},
	{"type": "Feature",
			"geometry"	: {"type": "Polygon", "coordinates": [[[-3.184319, 55.946233], [-3.184319, 55.942617], [-3.192473, 55.942617], [-3.192473, 55.946233]]]},
		"properties": {"fill-opacity": 0}},
	{"type": "Feature",
			"geometry"	: {"type": "Point", "coordinates": [-3.187645, 55.944143]},
			"properties": {"marker-size": "medium", "location": "bound.ends.matter", "rgb-string": "#80ff00", "marker-color": "#80ff00", "marker-symbol": "lighthouse"}
			},
	{"type": "Feature",
			"geometry"	: {"type": "Point", "coordinates": [-3.1875, 55.943874]},
			"properties": {"marker-size": "medium", "location": "begins.spider.drips", "rgb-string": "#80ff00", "marker-color": "#80ff00", "marker-symbol": "lighthouse"}
			},
	{"type": "Feature",
			"geometry"	: {"type": "Point", "coordinates": [-3.187018, 55.943982]},
			"properties": {"marker-size": "medium", "location": "renew.ears.tend", "rgb-string": "#c0ff00", "marker-color": "#c0ff00", "marker-symbol": "lighthouse"}
			},
	{"type": "Feature",
			"geometry"	: {"type": "Point", "coordinates": [-3.186537, 55.944063]},
			"properties": {"marker-size": "medium", "location": "lime.learns.front", "rgb-string": "#ff8000", "marker-color": "#ff8000", "marker-symbol": "danger"}
			},
	{"type": "Feature",
			"geometry"	: {"type": "Point", "coordinates": [-3.187355, 55.943604]},
			"properties": {"marker-size": "medium", "location": "shut.stands.media", "rgb-string": "#80ff00", "marker-color": "#80ff00", "marker-symbol": "lighthouse"}
			},
	{"type": "Feature",
			"geometry"	: {"type": "Point", "coordinates": [-3.187837, 55.943227]},
			"properties": {"marker-size": "medium", "location": "gums.clock.modes", "rgb-string": "#80ff00", "marker-color": "#80ff00", "marker-symbol": "lighthouse"}
			},
	{"type": "Feature",
			"geometry"	: {"type": "Point", "coordinates": [-3.18697, 55.942688]},
			"properties": {"marker-size": "medium", "location": "strut.river.surely", "rgb-string": "#c0ff00", "marker-color": "#c0ff00", "marker-symbol": "lighthouse"}
			},
	{"type": "Feature",
			"geometry"	: {"type": "Point", "coordinates": [-3.185814, 55.943551]},
			"properties": {"marker-size": "medium", "location": "record.sofa.sock", "rgb-string": "#000000", "marker-color": "#000000", "marker-symbol": "cross"}
			},
	{"type": "Feature",
			"geometry"	: {"type": "Point", "coordinates": [-3.185621, 55.943065]},
			"properties": {"marker-size": "medium", "location": "toned.deflection.bland", "rgb-string": "#000000", "marker-color": "#000000", "marker-symbol": "cross"}
			},
	{"type": "Feature",
			"geometry"	: {"type": "Point", "coordinates": [-3.184754, 55.943012]},
			"properties": {"marker-size": "medium", "location": "courier.assume.bill", "rgb-string": "#ffc000", "marker-color": "#ffc000", "marker-symbol": "danger"}
			},
	{"type": "Feature",
			"geometry"	: {"type": "Point", "coordinates": [-3.184947, 55.943443]},
			"properties": {"marker-size": "medium", "location": "sentences.sings.modern", "rgb-string": "#ffc000", "marker-color": "#ffc000", "marker-symbol": "danger"}
			},
	{"type": "Feature",
			"geometry"	: {"type": "Point", "coordinates": [-3.184658, 55.943874]},
			"properties": {"marker-size": "medium", "location": "rider.mile.lime", "rgb-string": "#ffc000", "marker-color": "#ffc000", "marker-symbol": "danger"}
			},
	{"type": "Feature",
			"geometry"	: {"type": "Point", "coordinates": [-3.184513, 55.945302]},
			"properties": {"marker-size": "medium", "location": "settle.title.united", "rgb-string": "#ffc000", "marker-color": "#ffc000", "marker-symbol": "danger"}
			},
	{"type": "Feature",
			"geometry"	: {"type": "Point", "coordinates": [-3.185621, 55.945761]},
			"properties": {"marker-size": "medium", "location": "shed.desire.muddy", "rgb-string": "#ff8000", "marker-color": "#ff8000", "marker-symbol": "danger"}
			},
	{"type": "Feature",
			"geometry"	: {"type": "Point", "coordinates": [-3.185814, 55.94603]},
			"properties": {"marker-size": "medium", "location": "renew.slows.basket", "rgb-string": "#ff8000", "marker-color": "#ff8000", "marker-symbol": "danger"}
			},
	{"type": "Feature",
			"geometry"	: {"type": "Point", "coordinates": [-3.186922, 55.945437]},
			"properties": {"marker-size": "medium", "location": "spent.spoon.bolt", "rgb-string": "#ff8000", "marker-color": "#ff8000", "marker-symbol": "danger"}
			},
	{"type": "Feature",
			"geometry"	: {"type": "Point", "coordinates": [-3.186777, 55.944575]},
			"properties": {"marker-size": "medium", "location": "artist.gets.react", "rgb-string": "#000000", "marker-color": "#000000", "marker-symbol": "cross"}
			},
	{"type": "Feature",
			"geometry"	: {"type": "Point", "coordinates": [-3.186537, 55.944925]},
			"properties": {"marker-size": "medium", "location": "laws.merit.bleak", "rgb-string": "#ff0000", "marker-color": "#ff0000", "marker-symbol": "danger"}
			},
	{"type": "Feature",
			"geometry"	: {"type": "Point", "coordinates": [-3.186729, 55.945168]},
			"properties": {"marker-size": "medium", "location": "dragon.bottle.crisp", "rgb-string": "#ff0000", "marker-color": "#ff0000", "marker-symbol": "danger"}
			},
	{"type": "Feature",
			"geometry"	: {"type": "Point", "coordinates": [-3.188463, 55.945761]},
			"properties": {"marker-size": "medium", "location": "bend.tubes.chops", "rgb-string": "#ff4000", "marker-color": "#ff4000", "marker-symbol": "danger"}
			},
	{"type": "Feature",
			"geometry"	: {"type": "Point", "coordinates": [-3.188801, 55.945437]},
			"properties": {"marker-size": "medium", "location": "shady.soft.phones", "rgb-string": "#000000", "marker-color": "#000000", "marker-symbol": "cross"}
			},
	{"type": "Feature",
			"geometry"	: {"type": "Point", "coordinates": [-3.189186, 55.945087]},
			"properties": {"marker-size": "medium", "location": "number.exist.rate", "rgb-string": "#ffc000", "marker-color": "#ffc000", "marker-symbol": "danger"}
			},
	{"type": "Feature",
			"geometry"	: {"type": "Point", "coordinates": [-3.18933, 55.945653]},
			"properties": {"marker-size": "medium", "location": "museum.spicy.horns", "rgb-string": "#ffc000", "marker-color": "#ffc000", "marker-symbol": "danger"}
			},
	{"type": "Feature",
			"geometry"	: {"type": "Point", "coordinates": [-3.18986, 55.945491]},
			"properties": {"marker-size": "medium", "location": "turkey.limit.ramp", "rgb-string": "#ffc000", "marker-color": "#ffc000", "marker-symbol": "danger"}
			},
	{"type": "Feature",
			"geometry"	: {"type": "Point", "coordinates": [-3.189957, 55.94603]},
			"properties": {"marker-size": "medium", "location": "love.behind.orchestra", "rgb-string": "#ffc000", "marker-color": "#ffc000", "marker-symbol": "danger"}
			},
	{"type": "Feature",
			"geometry"	: {"type": "Point", "coordinates": [-3.191257, 55.945599]},
			"properties": {"marker-size": "medium", "location": "skins.engage.best", "rgb-string": "#ff4000", "marker-color": "#ff4000", "marker-symbol": "danger"}
			},
	{"type": "Feature",
			"geometry"	: {"type": "Point", "coordinates": [-3.192221, 55.945114]},
			"properties": {"marker-size": "medium", "location": "useful.hike.trades", "rgb-string": "#c0ff00", "marker-color": "#c0ff00", "marker-symbol": "lighthouse"}
			},
	{"type": "Feature",
			"geometry"	: {"type": "Point", "coordinates": [-3.191016, 55.944979]},
			"properties": {"marker-size": "medium", "location": "shapes.sheep.nature", "rgb-string": "#ff4000", "marker-color": "#ff4000", "marker-symbol": "danger"}
			},
	{"type": "Feature",
			"geometry"	: {"type": "Point", "coordinates": [-3.191113, 55.943631]},
			"properties": {"marker-size": "medium", "location": "loaf.cheer.slave", "rgb-string": "#00ff00", "marker-color": "#00ff00", "marker-symbol": "lighthouse"}
			},
	{"type": "Feature",
			"geometry"	: {"type": "Point", "coordinates": [-3.190053, 55.943173]},
			"properties": {"marker-size": "medium", "location": "shows.fries.lamp", "rgb-string": "#40ff00", "marker-color": "#40ff00", "marker-symbol": "lighthouse"}
			},
	{"type": "Feature",
			"geometry"	: {"type": "Point", "coordinates": [-3.189234, 55.943012]},
			"properties": {"marker-size": "medium", "location": "region.passes.pencil", "rgb-string": "#80ff00", "marker-color": "#80ff00", "marker-symbol": "lighthouse"}
			},
	{"type": "Feature",
			"geometry"	: {"type": "Point", "coordinates": [-3.189812, 55.94409]},
			"properties": {"marker-size": "medium", "location": "cliff.asleep.wedge", "rgb-string": "#40ff00", "marker-color": "#40ff00", "marker-symbol": "lighthouse"}
			},
	{"type": "Feature",
			"geometry"	: {"type": "Point", "coordinates": [-3.187885, 55.944709]},
			"properties": {"marker-size": "medium", "location": "hurt.green.filer", "rgb-string": "#c0ff00", "marker-color": "#c0ff00", "marker-symbol": "lighthouse"}
			},
	{"type": "Feature",
			"geometry": {"type": "LineString",
				"coordinates": [
				[-3.188396, 55.944425],[-3.1881140922137643, 55.944322393957],[-3.1878321844275286, 55.944219787914],[-3.187550276641293, 55.944117181871],[-3.1874002766412928, 55.943857374249866],[-3.187104834315389, 55.94390946870317],[-3.186809391989485, 55.94396156315647],[-3.1865139496635813, 55.94401365760977],[-3.186795857449817, 55.94391105156677],[-3.1870777652360527, 55.94380844552377],[-3.1873596730222884, 55.94370583948077],[-3.187641580808524, 55.94360323343777],[-3.18792348859476, 55.94350062739477],[-3.187820882551762, 55.94321871960853],[-3.1875610749306267, 55.94306871960853],[-3.187301267309491, 55.942918719608535],[-3.1870414596883556, 55.94276871960854],[-3.18675955190212, 55.94287132565154],[-3.186477644115884, 55.94297393169454],[-3.1862478307829485, 55.943166767977445],[-3.186018017450013, 55.94335960426035],[-3.185788204117077, 55.94355244054326],[-3.1856855980740795, 55.94327053275702],[-3.185582992031082, 55.94298862497078],[-3.185287549705178, 55.94304071942408],[-3.184987549705178, 55.94304071942408],[-3.1846875497051776, 55.94304071942408],[-3.1848375497051777, 55.94330052704522],[-3.18473494366218, 55.943582434831455],[-3.18468284920888, 55.94387787715736],[-3.18463075475558, 55.94417331948327],[-3.18457866030228, 55.944468761809176],[-3.18452656584898, 55.94476420413508],[-3.18447447139568, 55.94505964646099],[-3.18452656584898, 55.9453550887869],[-3.184808473635216, 55.9454576948299],[-3.1850903814214515, 55.9455603008729],[-3.1853722892076872, 55.9456629069159],[-3.185654196993923, 55.9457655129589],[-3.185804196993923, 55.946025320580034],[-3.186099639319827, 55.94597322612673],[-3.1863950816457307, 55.94592113167343],[-3.1866905239716345, 55.94586903722013],[-3.186587917928637, 55.94558712943389],[-3.186887917928637, 55.94558712943389],[-3.186737917928637, 55.945327321812755],[-3.186587917928637, 55.94506751419162],[-3.186437917928637, 55.94480770657049],[-3.1867198257148726, 55.944705100527486],[-3.186437917928637, 55.94480770657049],[-3.1866307542115426, 55.94503751990342],[-3.1868235904944484, 55.94526733323636],[-3.187016426777354, 55.945497146569295],[-3.18724624011029, 55.9456899828522],[-3.18754624011029, 55.9456899828522],[-3.1878462401102903, 55.9456899828522],[-3.188141682436194, 55.9457420773055],[-3.1884416824361943, 55.9457420773055],[-3.18867149576913, 55.9455492410226],[-3.1889013091020657, 55.94535640473969],[-3.1891311224350014, 55.945163568456785],[-3.189233728477999, 55.94544547624302],[-3.1893363345209966, 55.94572738402926],[-3.1896182423072323, 55.94562477798626],[-3.189878049928368, 55.94547477798626],[-3.189825955475068, 55.94577022031217],[-3.189975955475068, 55.946030027933304],[-3.1902578632613037, 55.9459274218903],[-3.1905397710475394, 55.9458248158473],[-3.190821678833775, 55.9457222098043],[-3.191103586620011, 55.9456196037613],[-3.1913854944062465, 55.9455169977183],[-3.191645302027382, 55.9453669977183],[-3.1919272098136178, 55.9452643916753],[-3.1921870174347533, 55.945114391675304],[-3.1919051096485176, 55.9450117856323],[-3.1916096673226138, 55.945063880085605],[-3.19131422499671, 55.94511597453891],[-3.1910544173755744, 55.94496597453891],[-3.1911065118288744, 55.944670532213],[-3.1911586062821744, 55.944375089887096],[-3.1911065118288744, 55.94407964756119],[-3.1911586062821744, 55.94378420523528],[-3.1908631639562706, 55.94373211078198],[-3.190670327673365, 55.943502297449044],[-3.190374885347461, 55.94345020299574],[-3.190224885347461, 55.94319039537461],[-3.189929443021557, 55.94324248982791],[-3.189634000695653, 55.94329458428121],[-3.1893385583697493, 55.94324248982791],[-3.1890431160438455, 55.94319039537461],[-3.1893385583697493, 55.943138300921305],[-3.189634000695653, 55.943086206468],[-3.1895313946526556, 55.94336811425424],[-3.189428788609658, 55.94365002204048],[-3.1896885962307935, 55.94380002204048],[-3.1896365017774935, 55.944095464366384],[-3.1893410594515896, 55.94414755881969],[-3.189045617125686, 55.94419965327299],[-3.188750174799782, 55.94425174772629],[-3.188454732473878, 55.94430384217959],[-3.1881592901479743, 55.944355936632896],[-3.1878638478220704, 55.9444080310862],[-3.187966453865068, 55.944689938872436],[-3.187914359411768, 55.94439449654653],[-3.188209801737672, 55.94434240209323]
				]
			},"properties":{
		}
	}
		
	]
}