{"type": "FeatureCollection",
	"features"	: [
	{"type": "Feature",
			"geometry"	: {"type": "Polygon", "coordinates": [[[-3.1871804594993587, 55.94448750356385],[-3.187042325735092, 55.944193856370475],[-3.1869766116142273, 55.94420361961219],[-3.186897486448288, 55.94404815847112],[-3.186330199241638, 55.94413227278919],[-3.186405301094055, 55.944296745793935],[-3.1863033771514893, 55.944311015108454],[-3.1863395869731903, 55.94437109637507],[-3.186409324407577, 55.94436208419099],[-3.186425417661667, 55.944397381899876],[-3.186226934194565, 55.94442366740687],[-3.1863945722579956, 55.94457011490493],[-3.1864307820796967, 55.94458588614092],[-3.186488449573517, 55.94459189422912],[-3.1871804594993587, 55.94448750356385],[-3.1871804594993587, 55.94448750356385]]]},
		"properties": {"fill-opacity": 0.5, "fill": "#ff0000"}},
	{"type": "Feature",
			"geometry"	: {"type": "Polygon", "coordinates": [[[-3.186697661876678, 55.943360216655655],[-3.186556175351143, 55.94306656091478],[-3.186345621943474, 55.943098480124895],[-3.1864864379167557, 55.94339251114087],[-3.186697661876678, 55.943360216655655],[-3.186697661876678, 55.943360216655655]]]},
		"properties": {"fill-opacity": 0.5, "fill": "#ff0000"}},
	{"type": "Feature",
			"geometry"	: {"type": "Polygon", "coordinates": [[[-3.189708441495895, 55.94280820210462],[-3.1894750893115997, 55.94233128523903],[-3.1882721185684204, 55.942514542178216],[-3.1885054707527156, 55.94299295887116],[-3.189708441495895, 55.94280820210462],[-3.189708441495895, 55.94280820210462]]]},
		"properties": {"fill-opacity": 0.5, "fill": "#ff0000"}},
	{"type": "Feature",
			"geometry"	: {"type": "Polygon", "coordinates": [[[-3.188078999519348, 55.94541799748307],[-3.187633752822876, 55.94458288209647],[-3.1869176030158997, 55.94470154167527],[-3.187046349048614, 55.94494186375901],[-3.186909556388855, 55.944964393877896],[-3.18678081035614, 55.94481569485101],[-3.1865662336349487, 55.94487727734554],[-3.187113404273987, 55.94555317633777],[-3.1872957944869995, 55.945505112799054],[-3.187832236289978, 55.945460053177314],[-3.188078999519348, 55.94541799748307],[-3.188078999519348, 55.94541799748307]]]},
		"properties": {"fill-opacity": 0.5, "fill": "#ff0000"}},
	{"type": "Feature",
			"geometry"	: {"type": "Polygon", "coordinates": [[[-3.184319, 55.946233], [-3.184319, 55.942617], [-3.192473, 55.942617], [-3.192473, 55.946233]]]},
		"properties": {"fill-opacity": 0}},
	{"type": "Feature",
			"geometry"	: {"type": "Point", "coordinates": [-3.18514, 55.943685]},
			"properties": {"marker-size": "medium", "location": "hello.love.keys", "rgb-string": "#ffc000", "marker-color": "#ffc000", "marker-symbol": "danger"}
			},
	{"type": "Feature",
			"geometry"	: {"type": "Point", "coordinates": [-3.185525, 55.943982]},
			"properties": {"marker-size": "medium", "location": "manliness.poem.cliff", "rgb-string": "#c0ff00", "marker-color": "#c0ff00", "marker-symbol": "lighthouse"}
			},
	{"type": "Feature",
			"geometry"	: {"type": "Point", "coordinates": [-3.184465, 55.944952]},
			"properties": {"marker-size": "medium", "location": "sports.topic.clocks", "rgb-string": "#ff4000", "marker-color": "#ff4000", "marker-symbol": "danger"}
			},
	{"type": "Feature",
			"geometry"	: {"type": "Point", "coordinates": [-3.185814, 55.94603]},
			"properties": {"marker-size": "medium", "location": "renew.slows.basket", "rgb-string": "#ff8000", "marker-color": "#ff8000", "marker-symbol": "danger"}
			},
	{"type": "Feature",
			"geometry"	: {"type": "Point", "coordinates": [-3.186922, 55.945437]},
			"properties": {"marker-size": "medium", "location": "spent.spoon.bolt", "rgb-string": "#ff4000", "marker-color": "#ff4000", "marker-symbol": "danger"}
			},
	{"type": "Feature",
			"geometry"	: {"type": "Point", "coordinates": [-3.18856, 55.946057]},
			"properties": {"marker-size": "medium", "location": "boost.radar.stress", "rgb-string": "#ff4000", "marker-color": "#ff4000", "marker-symbol": "danger"}
			},
	{"type": "Feature",
			"geometry"	: {"type": "Point", "coordinates": [-3.189379, 55.945949]},
			"properties": {"marker-size": "medium", "location": "coherent.saints.stuck", "rgb-string": "#ff0000", "marker-color": "#ff0000", "marker-symbol": "danger"}
			},
	{"type": "Feature",
			"geometry"	: {"type": "Point", "coordinates": [-3.191065, 55.944709]},
			"properties": {"marker-size": "medium", "location": "estate.gave.votes", "rgb-string": "#40ff00", "marker-color": "#40ff00", "marker-symbol": "lighthouse"}
			},
	{"type": "Feature",
			"geometry"	: {"type": "Point", "coordinates": [-3.192221, 55.945114]},
			"properties": {"marker-size": "medium", "location": "useful.hike.trades", "rgb-string": "#ffc000", "marker-color": "#ffc000", "marker-symbol": "danger"}
			},
	{"type": "Feature",
			"geometry"	: {"type": "Point", "coordinates": [-3.191065, 55.94444]},
			"properties": {"marker-size": "medium", "location": "paying.crowd.weep", "rgb-string": "#000000", "marker-color": "#000000", "marker-symbol": "cross"}
			},
	{"type": "Feature",
			"geometry"	: {"type": "Point", "coordinates": [-3.191113, 55.94417]},
			"properties": {"marker-size": "medium", "location": "hills.giant.crate", "rgb-string": "#00ff00", "marker-color": "#00ff00", "marker-symbol": "lighthouse"}
			},
	{"type": "Feature",
			"geometry"	: {"type": "Point", "coordinates": [-3.191113, 55.943631]},
			"properties": {"marker-size": "medium", "location": "loaf.cheer.slave", "rgb-string": "#00ff00", "marker-color": "#00ff00", "marker-symbol": "lighthouse"}
			},
	{"type": "Feature",
			"geometry"	: {"type": "Point", "coordinates": [-3.191161, 55.943065]},
			"properties": {"marker-size": "medium", "location": "else.urban.museum", "rgb-string": "#000000", "marker-color": "#000000", "marker-symbol": "cross"}
			},
	{"type": "Feature",
			"geometry"	: {"type": "Point", "coordinates": [-3.189908, 55.942904]},
			"properties": {"marker-size": "medium", "location": "second.launch.miles", "rgb-string": "#000000", "marker-color": "#000000", "marker-symbol": "cross"}
			},
	{"type": "Feature",
			"geometry"	: {"type": "Point", "coordinates": [-3.189764, 55.942661]},
			"properties": {"marker-size": "medium", "location": "hooked.shine.third", "rgb-string": "#40ff00", "marker-color": "#40ff00", "marker-symbol": "lighthouse"}
			},
	{"type": "Feature",
			"geometry"	: {"type": "Point", "coordinates": [-3.189234, 55.943012]},
			"properties": {"marker-size": "medium", "location": "region.passes.pencil", "rgb-string": "#40ff00", "marker-color": "#40ff00", "marker-symbol": "lighthouse"}
			},
	{"type": "Feature",
			"geometry"	: {"type": "Point", "coordinates": [-3.188608, 55.943119]},
			"properties": {"marker-size": "medium", "location": "groups.ideas.script", "rgb-string": "#80ff00", "marker-color": "#80ff00", "marker-symbol": "lighthouse"}
			},
	{"type": "Feature",
			"geometry"	: {"type": "Point", "coordinates": [-3.188945, 55.943928]},
			"properties": {"marker-size": "medium", "location": "noted.friday.jams", "rgb-string": "#40ff00", "marker-color": "#40ff00", "marker-symbol": "lighthouse"}
			},
	{"type": "Feature",
			"geometry"	: {"type": "Point", "coordinates": [-3.189138, 55.944197]},
			"properties": {"marker-size": "medium", "location": "spoon.invest.every", "rgb-string": "#40ff00", "marker-color": "#40ff00", "marker-symbol": "lighthouse"}
			},
	{"type": "Feature",
			"geometry"	: {"type": "Point", "coordinates": [-3.189812, 55.94409]},
			"properties": {"marker-size": "medium", "location": "cliff.asleep.wedge", "rgb-string": "#40ff00", "marker-color": "#40ff00", "marker-symbol": "lighthouse"}
			},
	{"type": "Feature",
			"geometry"	: {"type": "Point", "coordinates": [-3.188801, 55.945437]},
			"properties": {"marker-size": "medium", "location": "shady.soft.phones", "rgb-string": "#ffc000", "marker-color": "#ffc000", "marker-symbol": "danger"}
			},
	{"type": "Feature",
			"geometry"	: {"type": "Point", "coordinates": [-3.18803, 55.944979]},
			"properties": {"marker-size": "medium", "location": "agents.mile.crib", "rgb-string": "#c0ff00", "marker-color": "#c0ff00", "marker-symbol": "lighthouse"}
			},
	{"type": "Feature",
			"geometry"	: {"type": "Point", "coordinates": [-3.187789, 55.944386]},
			"properties": {"marker-size": "medium", "location": "thank.salsa.brain", "rgb-string": "#80ff00", "marker-color": "#80ff00", "marker-symbol": "lighthouse"}
			},
	{"type": "Feature",
			"geometry"	: {"type": "Point", "coordinates": [-3.187018, 55.943982]},
			"properties": {"marker-size": "medium", "location": "renew.ears.tend", "rgb-string": "#c0ff00", "marker-color": "#c0ff00", "marker-symbol": "lighthouse"}
			},
	{"type": "Feature",
			"geometry"	: {"type": "Point", "coordinates": [-3.187211, 55.943335]},
			"properties": {"marker-size": "medium", "location": "scale.chair.kinds", "rgb-string": "#ffc000", "marker-color": "#ffc000", "marker-symbol": "danger"}
			},
	{"type": "Feature",
			"geometry"	: {"type": "Point", "coordinates": [-3.187018, 55.942877]},
			"properties": {"marker-size": "medium", "location": "valve.elaborate.fortunate", "rgb-string": "#000000", "marker-color": "#000000", "marker-symbol": "cross"}
			},
	{"type": "Feature",
			"geometry"	: {"type": "Point", "coordinates": [-3.18697, 55.942688]},
			"properties": {"marker-size": "medium", "location": "strut.river.surely", "rgb-string": "#ffc000", "marker-color": "#ffc000", "marker-symbol": "danger"}
			},
	{"type": "Feature",
			"geometry"	: {"type": "Point", "coordinates": [-3.186344, 55.942958]},
			"properties": {"marker-size": "medium", "location": "hers.banks.goat", "rgb-string": "#ffc000", "marker-color": "#ffc000", "marker-symbol": "danger"}
			},
	{"type": "Feature",
			"geometry"	: {"type": "Point", "coordinates": [-3.186248, 55.942796]},
			"properties": {"marker-size": "medium", "location": "under.retire.bump", "rgb-string": "#ff0000", "marker-color": "#ff0000", "marker-symbol": "danger"}
			},
	{"type": "Feature",
			"geometry"	: {"type": "Point", "coordinates": [-3.185573, 55.942877]},
			"properties": {"marker-size": "medium", "location": "dent.shins.cycle", "rgb-string": "#ff0000", "marker-color": "#ff0000", "marker-symbol": "danger"}
			},
	{"type": "Feature",
			"geometry"	: {"type": "Point", "coordinates": [-3.185621, 55.943065]},
			"properties": {"marker-size": "medium", "location": "toned.deflection.bland", "rgb-string": "#ffc000", "marker-color": "#ffc000", "marker-symbol": "danger"}
			},
	{"type": "Feature",
			"geometry"	: {"type": "Point", "coordinates": [-3.184754, 55.943012]},
			"properties": {"marker-size": "medium", "location": "courier.assume.bill", "rgb-string": "#ff4000", "marker-color": "#ff4000", "marker-symbol": "danger"}
			},
	{"type": "Feature",
			"geometry"	: {"type": "Point", "coordinates": [-3.184803, 55.943173]},
			"properties": {"marker-size": "medium", "location": "brings.remedy.latter", "rgb-string": "#000000", "marker-color": "#000000", "marker-symbol": "cross"}
			},
	{"type": "Feature",
			"geometry": {"type": "LineString",
				"coordinates": [
				[-3.188396, 55.944425],[-3.1881140922137643, 55.944322393957],[-3.1878321844275286, 55.944219787914],[-3.187550276641293, 55.944117181871],[-3.187254834315389, 55.9440650874177],[-3.186959391989485, 55.944012992964396],[-3.1866639496635814, 55.943960898511094],[-3.1863685073376775, 55.94390880405779],[-3.1860730650117737, 55.94385670960449],[-3.18577762268587, 55.94380461515119],[-3.185482180359966, 55.943752520697885],[-3.185186738034062, 55.94370042624458],[-3.185379574316968, 55.94393023957752],[-3.185186738034062, 55.944160052910455],[-3.1849939017511564, 55.94438986624339],[-3.1848010654682506, 55.94461967957633],[-3.184608229185345, 55.94484949290926],[-3.1848380425182805, 55.94504232919217],[-3.1850308788011863, 55.945272142525106],[-3.185260692134122, 55.94546497880801],[-3.185453528417028, 55.94569479214095],[-3.1856833417499635, 55.945887628423854],[-3.1859787840758673, 55.94583553397055],[-3.186274226401771, 55.94578343951725],[-3.186569668727675, 55.94573134506395],[-3.186865111053579, 55.945679250610645],[-3.1867151110535787, 55.94541944298951],[-3.1869970188398145, 55.94552204903251],[-3.18727892662605, 55.94562465507551],[-3.187560834412286, 55.94572726111851],[-3.1878427421985216, 55.945829867161514],[-3.1881246499847573, 55.945932473204515],[-3.188406557770993, 55.946035079247515],[-3.188702000096897, 55.94598298479421],[-3.189002000096897, 55.94598298479421],[-3.189297442422801, 55.94593089034091],[-3.1895572500439364, 55.94578089034091],[-3.189787063376872, 55.94558805405801],[-3.1900468709980077, 55.94543805405801],[-3.1902766843309434, 55.9452452177751],[-3.190536491952079, 55.945095217775105],[-3.1907663052850146, 55.9449023814922],[-3.19102611290615, 55.9447523814922],[-3.191321555232054, 55.9448044759455],[-3.191616997557958, 55.944856570398805],[-3.1918989053441935, 55.944959176441806],[-3.192158712965329, 55.945109176441804],[-3.191863270639425, 55.945161270895106],[-3.1916704343565194, 55.94493145756217],[-3.191410626735384, 55.94478145756217],[-3.1911508191142484, 55.944631457562174],[-3.1910482130712507, 55.944349549775936],[-3.1911508191142484, 55.9440676419897],[-3.1910987246609483, 55.94377219966379],[-3.1911508191142484, 55.94347675733788],[-3.1912029135675484, 55.94318131501198],[-3.190943105946413, 55.94303131501198],[-3.1906431059464126, 55.94303131501198],[-3.1903431059464125, 55.94303131501198],[-3.1900431059464123, 55.94303131501198],[-3.189893105946412, 55.942771507390844],[-3.1896111981601765, 55.942874113433845],[-3.1893292903739408, 55.942976719476846],[-3.189033848048037, 55.94302881393015],[-3.188738405722133, 55.94308090838345],[-3.189020313508369, 55.94318351442645],[-3.188724871182465, 55.94323560887975],[-3.1889546845154007, 55.94342844516266],[-3.1891844978483364, 55.943621281445566],[-3.1888890555224325, 55.94367337589887],[-3.1890390555224326, 55.94393318352],[-3.1891890555224327, 55.944192991141136],[-3.1894844978483365, 55.944140896687834],[-3.1897799401742404, 55.94408880223453],[-3.1895871038913346, 55.94431861556747],[-3.189394267608429, 55.944548428900404],[-3.1892442676084287, 55.94480823652154],[-3.189051431325523, 55.945038049854475],[-3.188901431325523, 55.94529785747561],[-3.188708595042617, 55.94506804414267],[-3.1884487874214815, 55.944918044142675],[-3.188188979800346, 55.94476804414268],[-3.188241074253646, 55.945063486468584],[-3.1880112609207103, 55.94487065018568],[-3.1879086548777127, 55.94458874239944],[-3.1877586548777126, 55.944328934778305],[-3.187498847256577, 55.94417893477831],[-3.1872169394703413, 55.944076328735306],[-3.186957131849206, 55.94392632873531],[-3.1872525741751097, 55.943874234282006],[-3.1871025741751096, 55.94361442666087],[-3.1869525741751095, 55.94335461903974],[-3.1872480165010133, 55.943302524586436],[-3.187098016501013, 55.9430427169653],[-3.186948016501013, 55.94278290934417],[-3.1866661087147774, 55.94288551538717],[-3.1863842009285417, 55.94298812143017],[-3.186102293142306, 55.94288551538717],[-3.185806850816402, 55.942833420933866],[-3.1855114084904983, 55.94288551538717],[-3.185614014533496, 55.943167423173406],[-3.18533210674726, 55.943064817130406],[-3.18503210674726, 55.943064817130406],[-3.1847501989610243, 55.942962211087405],[-3.1848022934143243, 55.94325765341331],[-3.18508420120056, 55.94336025945631],[-3.1853661089867957, 55.94346286549931],[-3.1856480167730314, 55.943565471542314],[-3.185929924559267, 55.943668077585315],[-3.186211832345503, 55.943770683628316],[-3.1864937401317386, 55.943873289671316],[-3.1867756479179743, 55.94397589571432],[-3.18705755570421, 55.94407850175732],[-3.1873394634904457, 55.94418110780032],[-3.1876213712766814, 55.94428371384332],[-3.187903279062917, 55.94438631988632],[-3.188198721388821, 55.94433422543302]
				]
			},"properties":{
		}
	}
		
	]
}