{"type": "FeatureCollection",
	"features"	: [
	{"type": "Feature",
			"geometry"	: {"type": "Polygon", "coordinates": [[[-3.1871804594993587, 55.94448750356385],[-3.187042325735092, 55.944193856370475],[-3.1869766116142273, 55.94420361961219],[-3.186897486448288, 55.94404815847112],[-3.186330199241638, 55.94413227278919],[-3.186405301094055, 55.944296745793935],[-3.1863033771514893, 55.944311015108454],[-3.1863395869731903, 55.94437109637507],[-3.186409324407577, 55.94436208419099],[-3.186425417661667, 55.944397381899876],[-3.186226934194565, 55.94442366740687],[-3.1863945722579956, 55.94457011490493],[-3.1864307820796967, 55.94458588614092],[-3.186488449573517, 55.94459189422912],[-3.1871804594993587, 55.94448750356385],[-3.1871804594993587, 55.94448750356385]]]},
		"properties": {"fill-opacity": 0.5, "fill": "#ff0000"}},
	{"type": "Feature",
			"geometry"	: {"type": "Polygon", "coordinates": [[[-3.186697661876678, 55.943360216655655],[-3.186556175351143, 55.94306656091478],[-3.186345621943474, 55.943098480124895],[-3.1864864379167557, 55.94339251114087],[-3.186697661876678, 55.943360216655655],[-3.186697661876678, 55.943360216655655]]]},
		"properties": {"fill-opacity": 0.5, "fill": "#ff0000"}},
	{"type": "Feature",
			"geometry"	: {"type": "Polygon", "coordinates": [[[-3.189708441495895, 55.94280820210462],[-3.1894750893115997, 55.94233128523903],[-3.1882721185684204, 55.942514542178216],[-3.1885054707527156, 55.94299295887116],[-3.189708441495895, 55.94280820210462],[-3.189708441495895, 55.94280820210462]]]},
		"properties": {"fill-opacity": 0.5, "fill": "#ff0000"}},
	{"type": "Feature",
			"geometry"	: {"type": "Polygon", "coordinates": [[[-3.188078999519348, 55.94541799748307],[-3.187633752822876, 55.94458288209647],[-3.1869176030158997, 55.94470154167527],[-3.187046349048614, 55.94494186375901],[-3.186909556388855, 55.944964393877896],[-3.18678081035614, 55.94481569485101],[-3.1865662336349487, 55.94487727734554],[-3.187113404273987, 55.94555317633777],[-3.1872957944869995, 55.945505112799054],[-3.187832236289978, 55.945460053177314],[-3.188078999519348, 55.94541799748307],[-3.188078999519348, 55.94541799748307]]]},
		"properties": {"fill-opacity": 0.5, "fill": "#ff0000"}},
	{"type": "Feature",
			"geometry"	: {"type": "Polygon", "coordinates": [[[-3.184319, 55.946233], [-3.184319, 55.942617], [-3.192473, 55.942617], [-3.192473, 55.946233]]]},
		"properties": {"fill-opacity": 0}},
	{"type": "Feature",
			"geometry"	: {"type": "Point", "coordinates": [-3.188271, 55.944063]},
			"properties": {"marker-size": "medium", "location": "rush.crown.link", "rgb-string": "#00ff00", "marker-color": "#00ff00", "marker-symbol": "lighthouse"}
			},
	{"type": "Feature",
			"geometry"	: {"type": "Point", "coordinates": [-3.188126, 55.943793]},
			"properties": {"marker-size": "medium", "location": "cubs.trucks.help", "rgb-string": "#40ff00", "marker-color": "#40ff00", "marker-symbol": "lighthouse"}
			},
	{"type": "Feature",
			"geometry"	: {"type": "Point", "coordinates": [-3.187018, 55.943982]},
			"properties": {"marker-size": "medium", "location": "renew.ears.tend", "rgb-string": "#80ff00", "marker-color": "#80ff00", "marker-symbol": "lighthouse"}
			},
	{"type": "Feature",
			"geometry"	: {"type": "Point", "coordinates": [-3.187355, 55.943604]},
			"properties": {"marker-size": "medium", "location": "shut.stands.media", "rgb-string": "#80ff00", "marker-color": "#80ff00", "marker-symbol": "lighthouse"}
			},
	{"type": "Feature",
			"geometry"	: {"type": "Point", "coordinates": [-3.18697, 55.942688]},
			"properties": {"marker-size": "medium", "location": "strut.river.surely", "rgb-string": "#ff4000", "marker-color": "#ff4000", "marker-symbol": "danger"}
			},
	{"type": "Feature",
			"geometry"	: {"type": "Point", "coordinates": [-3.188704, 55.943389]},
			"properties": {"marker-size": "medium", "location": "system.speak.guard", "rgb-string": "#00ff00", "marker-color": "#00ff00", "marker-symbol": "lighthouse"}
			},
	{"type": "Feature",
			"geometry"	: {"type": "Point", "coordinates": [-3.188608, 55.943119]},
			"properties": {"marker-size": "medium", "location": "groups.ideas.script", "rgb-string": "#40ff00", "marker-color": "#40ff00", "marker-symbol": "lighthouse"}
			},
	{"type": "Feature",
			"geometry"	: {"type": "Point", "coordinates": [-3.189138, 55.944197]},
			"properties": {"marker-size": "medium", "location": "spoon.invest.every", "rgb-string": "#40ff00", "marker-color": "#40ff00", "marker-symbol": "lighthouse"}
			},
	{"type": "Feature",
			"geometry"	: {"type": "Point", "coordinates": [-3.189812, 55.94409]},
			"properties": {"marker-size": "medium", "location": "cliff.asleep.wedge", "rgb-string": "#40ff00", "marker-color": "#40ff00", "marker-symbol": "lighthouse"}
			},
	{"type": "Feature",
			"geometry"	: {"type": "Point", "coordinates": [-3.190294, 55.943712]},
			"properties": {"marker-size": "medium", "location": "sculpture.shot.melon", "rgb-string": "#40ff00", "marker-color": "#40ff00", "marker-symbol": "lighthouse"}
			},
	{"type": "Feature",
			"geometry"	: {"type": "Point", "coordinates": [-3.189764, 55.942661]},
			"properties": {"marker-size": "medium", "location": "hooked.shine.third", "rgb-string": "#40ff00", "marker-color": "#40ff00", "marker-symbol": "lighthouse"}
			},
	{"type": "Feature",
			"geometry"	: {"type": "Point", "coordinates": [-3.191161, 55.942742]},
			"properties": {"marker-size": "medium", "location": "along.spill.limp", "rgb-string": "#00ff00", "marker-color": "#00ff00", "marker-symbol": "lighthouse"}
			},
	{"type": "Feature",
			"geometry"	: {"type": "Point", "coordinates": [-3.191161, 55.943065]},
			"properties": {"marker-size": "medium", "location": "else.urban.museum", "rgb-string": "#00ff00", "marker-color": "#00ff00", "marker-symbol": "lighthouse"}
			},
	{"type": "Feature",
			"geometry"	: {"type": "Point", "coordinates": [-3.190727, 55.943092]},
			"properties": {"marker-size": "medium", "location": "relate.chill.vest", "rgb-string": "#00ff00", "marker-color": "#00ff00", "marker-symbol": "lighthouse"}
			},
	{"type": "Feature",
			"geometry"	: {"type": "Point", "coordinates": [-3.191161, 55.943362]},
			"properties": {"marker-size": "medium", "location": "meal.feed.large", "rgb-string": "#40ff00", "marker-color": "#40ff00", "marker-symbol": "lighthouse"}
			},
	{"type": "Feature",
			"geometry"	: {"type": "Point", "coordinates": [-3.191113, 55.943901]},
			"properties": {"marker-size": "medium", "location": "spicy.bunch.shady", "rgb-string": "#00ff00", "marker-color": "#00ff00", "marker-symbol": "lighthouse"}
			},
	{"type": "Feature",
			"geometry"	: {"type": "Point", "coordinates": [-3.191065, 55.94444]},
			"properties": {"marker-size": "medium", "location": "paying.crowd.weep", "rgb-string": "#40ff00", "marker-color": "#40ff00", "marker-symbol": "lighthouse"}
			},
	{"type": "Feature",
			"geometry"	: {"type": "Point", "coordinates": [-3.191161, 55.945976]},
			"properties": {"marker-size": "medium", "location": "simple.rust.audio", "rgb-string": "#000000", "marker-color": "#000000", "marker-symbol": "cross"}
			},
	{"type": "Feature",
			"geometry"	: {"type": "Point", "coordinates": [-3.188897, 55.945707]},
			"properties": {"marker-size": "medium", "location": "stops.else.chats", "rgb-string": "#ff0000", "marker-color": "#ff0000", "marker-symbol": "danger"}
			},
	{"type": "Feature",
			"geometry"	: {"type": "Point", "coordinates": [-3.188319, 55.945518]},
			"properties": {"marker-size": "medium", "location": "skills.less.herb", "rgb-string": "#000000", "marker-color": "#000000", "marker-symbol": "cross"}
			},
	{"type": "Feature",
			"geometry"	: {"type": "Point", "coordinates": [-3.186296, 55.945761]},
			"properties": {"marker-size": "medium", "location": "posts.kicked.universally", "rgb-string": "#ff4000", "marker-color": "#ff4000", "marker-symbol": "danger"}
			},
	{"type": "Feature",
			"geometry"	: {"type": "Point", "coordinates": [-3.185814, 55.94603]},
			"properties": {"marker-size": "medium", "location": "renew.slows.basket", "rgb-string": "#ff0000", "marker-color": "#ff0000", "marker-symbol": "danger"}
			},
	{"type": "Feature",
			"geometry"	: {"type": "Point", "coordinates": [-3.185621, 55.945761]},
			"properties": {"marker-size": "medium", "location": "shed.desire.muddy", "rgb-string": "#ff4000", "marker-color": "#ff4000", "marker-symbol": "danger"}
			},
	{"type": "Feature",
			"geometry"	: {"type": "Point", "coordinates": [-3.184513, 55.945302]},
			"properties": {"marker-size": "medium", "location": "settle.title.united", "rgb-string": "#ff4000", "marker-color": "#ff4000", "marker-symbol": "danger"}
			},
	{"type": "Feature",
			"geometry"	: {"type": "Point", "coordinates": [-3.184899, 55.944736]},
			"properties": {"marker-size": "medium", "location": "slide.leads.stores", "rgb-string": "#000000", "marker-color": "#000000", "marker-symbol": "cross"}
			},
	{"type": "Feature",
			"geometry"	: {"type": "Point", "coordinates": [-3.185236, 55.944575]},
			"properties": {"marker-size": "medium", "location": "acid.chair.butter", "rgb-string": "#ff8000", "marker-color": "#ff8000", "marker-symbol": "danger"}
			},
	{"type": "Feature",
			"geometry"	: {"type": "Point", "coordinates": [-3.184947, 55.943443]},
			"properties": {"marker-size": "medium", "location": "sentences.sings.modern", "rgb-string": "#ffc000", "marker-color": "#ffc000", "marker-symbol": "danger"}
			},
	{"type": "Feature",
			"geometry"	: {"type": "Point", "coordinates": [-3.185525, 55.943982]},
			"properties": {"marker-size": "medium", "location": "manliness.poem.cliff", "rgb-string": "#ffc000", "marker-color": "#ffc000", "marker-symbol": "danger"}
			},
	{"type": "Feature",
			"geometry"	: {"type": "Point", "coordinates": [-3.186007, 55.943901]},
			"properties": {"marker-size": "medium", "location": "teams.mild.played", "rgb-string": "#ffc000", "marker-color": "#ffc000", "marker-symbol": "danger"}
			},
	{"type": "Feature",
			"geometry"	: {"type": "Point", "coordinates": [-3.186103, 55.944251]},
			"properties": {"marker-size": "medium", "location": "organs.shape.fantastic", "rgb-string": "#ff4000", "marker-color": "#ff4000", "marker-symbol": "danger"}
			},
	{"type": "Feature",
			"geometry"	: {"type": "Point", "coordinates": [-3.186729, 55.945168]},
			"properties": {"marker-size": "medium", "location": "dragon.bottle.crisp", "rgb-string": "#ffc000", "marker-color": "#ffc000", "marker-symbol": "danger"}
			},
	{"type": "Feature",
			"geometry"	: {"type": "Point", "coordinates": [-3.187307, 55.944494]},
			"properties": {"marker-size": "medium", "location": "only.fairly.rift", "rgb-string": "#ffc000", "marker-color": "#ffc000", "marker-symbol": "danger"}
			},
	{"type": "Feature",
			"geometry"	: {"type": "Point", "coordinates": [-3.187789, 55.944386]},
			"properties": {"marker-size": "medium", "location": "thank.salsa.brain", "rgb-string": "#40ff00", "marker-color": "#40ff00", "marker-symbol": "lighthouse"}
			},
	{"type": "Feature",
			"geometry": {"type": "LineString",
				"coordinates": [
				[-3.188396, 55.944425],[-3.1882933939570024, 55.944143092213764],[-3.1881433939570023, 55.94388328459263],[-3.187843393957002, 55.94388328459263],[-3.187543393957002, 55.94388328459263],[-3.187247951631098, 55.94393537904593],[-3.1869525093051942, 55.943987473499234],[-3.187247951631098, 55.94393537904593],[-3.187543393957002, 55.94388328459263],[-3.187393393957002, 55.943623476971496],[-3.1872433939570017, 55.94336366935036],[-3.1870933939570016, 55.94310386172923],[-3.1869433939570015, 55.94284405410809],[-3.1872253017432373, 55.942946660151094],[-3.187507209529473, 55.943049266194095],[-3.1877891173157087, 55.943151872237095],[-3.1880845596416125, 55.9432039666904],[-3.1883664674278482, 55.9433065727334],[-3.188661909753752, 55.9433586671867],[-3.188511909753752, 55.943098859565566],[-3.188661909753752, 55.9433586671867],[-3.188811909753752, 55.943618474807835],[-3.1889619097537523, 55.94387828242897],[-3.1891119097537524, 55.9441380900501],[-3.189407352079656, 55.944190184503405],[-3.18970279440556, 55.9441380900501],[-3.1899326077384957, 55.9439452537672],[-3.1901624210714314, 55.94375241748429],[-3.190059815028434, 55.94347050969805],[-3.189957208985436, 55.943188601911814],[-3.1898546029424386, 55.942906694125575],[-3.189751996899441, 55.94262478633934],[-3.189944833182347, 55.94285459967227],[-3.1902402755082506, 55.94280250521897],[-3.1905357178341545, 55.94275041076567],[-3.1908311601600583, 55.94269831631237],[-3.191113067946294, 55.94280092235537],[-3.191165162399594, 55.943096364681274],[-3.19086972007369, 55.94314845913458],[-3.191099533406626, 55.94334129541748],[-3.191151627859926, 55.94363673774339],[-3.191099533406626, 55.9439321800693],[-3.191047438953326, 55.9442276223952],[-3.191099533406626, 55.94452306472111],[-3.191151627859926, 55.94481850704702],[-3.191203722313226, 55.945113949372924],[-3.191151627859926, 55.94540939169883],[-3.191203722313226, 55.94570483402474],[-3.191151627859926, 55.946000276350645],[-3.1908516278599257, 55.946000276350645],[-3.1905516278599255, 55.946000276350645],[-3.1902516278599253, 55.946000276350645],[-3.189951627859925, 55.946000276350645],[-3.189651627859925, 55.946000276350645],[-3.1893516278599248, 55.946000276350645],[-3.189121814526989, 55.94580744006774],[-3.1888920011940534, 55.94561460378483],[-3.188592001194053, 55.94561460378483],[-3.188292001194053, 55.94561460378483],[-3.187992001194053, 55.94561460378483],[-3.1876920011940526, 55.94561460378483],[-3.1873965588681488, 55.945666698238135],[-3.1870965588681486, 55.945666698238135],[-3.1868011165422447, 55.94571879269144],[-3.1865011165422445, 55.94571879269144],[-3.1862056742163407, 55.94577088714474],[-3.185910231890437, 55.94582298159804],[-3.185962326343737, 55.94611842392395],[-3.185769490060831, 55.94588861059101],[-3.1855096824396956, 55.945738610591015],[-3.18522777465346, 55.945636004548014],[-3.1849679670323243, 55.945486004548016],[-3.1846860592460886, 55.945383398505015],[-3.184788665289086, 55.94510149071878],[-3.184891271332084, 55.94481958293254],[-3.1850841076149896, 55.9445897695996],[-3.1850320131616896, 55.944294327273695],[-3.1849799187083896, 55.94399888494779],[-3.1849278242550896, 55.94370344262188],[-3.1849799187083896, 55.943408000295975],[-3.1851727549912954, 55.94363781362891],[-3.185365591274201, 55.94386762696185],[-3.1856655912742013, 55.94386762696185],[-3.1859655912742015, 55.94386762696185],[-3.186068197317199, 55.944149534748085],[-3.1862181973171992, 55.94440934236922],[-3.1863681973171993, 55.944669149990354],[-3.186561033600105, 55.94489896332329],[-3.186753869883011, 55.945128776656226],[-3.186561033600105, 55.94489896332329],[-3.1863681973171993, 55.944669149990354],[-3.186663639643103, 55.94461705553705],[-3.186959081969007, 55.94456496108375],[-3.187254524294911, 55.94451286663045],[-3.1875499666208147, 55.944460772177145],[-3.1878318744070504, 55.944358166134144],[-3.188113782193286, 55.944460772177145]
				]
			},"properties":{
		}
	}
		
	]
}