{"type": "FeatureCollection",
	"features"	: [
	{"type": "Feature",
			"geometry"	: {"type": "Polygon", "coordinates": [[[-3.1871804594993587, 55.94448750356385],[-3.187042325735092, 55.944193856370475],[-3.1869766116142273, 55.94420361961219],[-3.186897486448288, 55.94404815847112],[-3.186330199241638, 55.94413227278919],[-3.186405301094055, 55.944296745793935],[-3.1863033771514893, 55.944311015108454],[-3.1863395869731903, 55.94437109637507],[-3.186409324407577, 55.94436208419099],[-3.186425417661667, 55.944397381899876],[-3.186226934194565, 55.94442366740687],[-3.1863945722579956, 55.94457011490493],[-3.1864307820796967, 55.94458588614092],[-3.186488449573517, 55.94459189422912],[-3.1871804594993587, 55.94448750356385],[-3.1871804594993587, 55.94448750356385]]]},
		"properties": {"fill-opacity": 0.5, "fill": "#ff0000"}},
	{"type": "Feature",
			"geometry"	: {"type": "Polygon", "coordinates": [[[-3.186697661876678, 55.943360216655655],[-3.186556175351143, 55.94306656091478],[-3.186345621943474, 55.943098480124895],[-3.1864864379167557, 55.94339251114087],[-3.186697661876678, 55.943360216655655],[-3.186697661876678, 55.943360216655655]]]},
		"properties": {"fill-opacity": 0.5, "fill": "#ff0000"}},
	{"type": "Feature",
			"geometry"	: {"type": "Polygon", "coordinates": [[[-3.189708441495895, 55.94280820210462],[-3.1894750893115997, 55.94233128523903],[-3.1882721185684204, 55.942514542178216],[-3.1885054707527156, 55.94299295887116],[-3.189708441495895, 55.94280820210462],[-3.189708441495895, 55.94280820210462]]]},
		"properties": {"fill-opacity": 0.5, "fill": "#ff0000"}},
	{"type": "Feature",
			"geometry"	: {"type": "Polygon", "coordinates": [[[-3.188078999519348, 55.94541799748307],[-3.187633752822876, 55.94458288209647],[-3.1869176030158997, 55.94470154167527],[-3.187046349048614, 55.94494186375901],[-3.186909556388855, 55.944964393877896],[-3.18678081035614, 55.94481569485101],[-3.1865662336349487, 55.94487727734554],[-3.187113404273987, 55.94555317633777],[-3.1872957944869995, 55.945505112799054],[-3.187832236289978, 55.945460053177314],[-3.188078999519348, 55.94541799748307],[-3.188078999519348, 55.94541799748307]]]},
		"properties": {"fill-opacity": 0.5, "fill": "#ff0000"}},
	{"type": "Feature",
			"geometry"	: {"type": "Polygon", "coordinates": [[[-3.184319, 55.946233], [-3.184319, 55.942617], [-3.192473, 55.942617], [-3.192473, 55.946233]]]},
		"properties": {"fill-opacity": 0}},
	{"type": "Feature",
			"geometry"	: {"type": "Point", "coordinates": [-3.186103, 55.944251]},
			"properties": {"marker-size": "medium", "location": "organs.shape.fantastic", "rgb-string": "#ff4000", "marker-color": "#ff4000", "marker-symbol": "danger"}
			},
	{"type": "Feature",
			"geometry"	: {"type": "Point", "coordinates": [-3.186007, 55.943901]},
			"properties": {"marker-size": "medium", "location": "teams.mild.played", "rgb-string": "#ffc000", "marker-color": "#ffc000", "marker-symbol": "danger"}
			},
	{"type": "Feature",
			"geometry"	: {"type": "Point", "coordinates": [-3.185525, 55.943982]},
			"properties": {"marker-size": "medium", "location": "manliness.poem.cliff", "rgb-string": "#ffc000", "marker-color": "#ffc000", "marker-symbol": "danger"}
			},
	{"type": "Feature",
			"geometry"	: {"type": "Point", "coordinates": [-3.184947, 55.943443]},
			"properties": {"marker-size": "medium", "location": "sentences.sings.modern", "rgb-string": "#ffc000", "marker-color": "#ffc000", "marker-symbol": "danger"}
			},
	{"type": "Feature",
			"geometry"	: {"type": "Point", "coordinates": [-3.185236, 55.944575]},
			"properties": {"marker-size": "medium", "location": "acid.chair.butter", "rgb-string": "#ff8000", "marker-color": "#ff8000", "marker-symbol": "danger"}
			},
	{"type": "Feature",
			"geometry"	: {"type": "Point", "coordinates": [-3.184899, 55.944736]},
			"properties": {"marker-size": "medium", "location": "slide.leads.stores", "rgb-string": "#000000", "marker-color": "#000000", "marker-symbol": "cross"}
			},
	{"type": "Feature",
			"geometry"	: {"type": "Point", "coordinates": [-3.184513, 55.945302]},
			"properties": {"marker-size": "medium", "location": "settle.title.united", "rgb-string": "#ff4000", "marker-color": "#ff4000", "marker-symbol": "danger"}
			},
	{"type": "Feature",
			"geometry"	: {"type": "Point", "coordinates": [-3.185621, 55.945761]},
			"properties": {"marker-size": "medium", "location": "shed.desire.muddy", "rgb-string": "#ff4000", "marker-color": "#ff4000", "marker-symbol": "danger"}
			},
	{"type": "Feature",
			"geometry"	: {"type": "Point", "coordinates": [-3.185814, 55.94603]},
			"properties": {"marker-size": "medium", "location": "renew.slows.basket", "rgb-string": "#ff0000", "marker-color": "#ff0000", "marker-symbol": "danger"}
			},
	{"type": "Feature",
			"geometry"	: {"type": "Point", "coordinates": [-3.186296, 55.945761]},
			"properties": {"marker-size": "medium", "location": "posts.kicked.universally", "rgb-string": "#ff4000", "marker-color": "#ff4000", "marker-symbol": "danger"}
			},
	{"type": "Feature",
			"geometry"	: {"type": "Point", "coordinates": [-3.188319, 55.945518]},
			"properties": {"marker-size": "medium", "location": "skills.less.herb", "rgb-string": "#000000", "marker-color": "#000000", "marker-symbol": "cross"}
			},
	{"type": "Feature",
			"geometry"	: {"type": "Point", "coordinates": [-3.188897, 55.945707]},
			"properties": {"marker-size": "medium", "location": "stops.else.chats", "rgb-string": "#ff0000", "marker-color": "#ff0000", "marker-symbol": "danger"}
			},
	{"type": "Feature",
			"geometry"	: {"type": "Point", "coordinates": [-3.191161, 55.945976]},
			"properties": {"marker-size": "medium", "location": "simple.rust.audio", "rgb-string": "#000000", "marker-color": "#000000", "marker-symbol": "cross"}
			},
	{"type": "Feature",
			"geometry"	: {"type": "Point", "coordinates": [-3.191065, 55.94444]},
			"properties": {"marker-size": "medium", "location": "paying.crowd.weep", "rgb-string": "#40ff00", "marker-color": "#40ff00", "marker-symbol": "lighthouse"}
			},
	{"type": "Feature",
			"geometry"	: {"type": "Point", "coordinates": [-3.191113, 55.943901]},
			"properties": {"marker-size": "medium", "location": "spicy.bunch.shady", "rgb-string": "#00ff00", "marker-color": "#00ff00", "marker-symbol": "lighthouse"}
			},
	{"type": "Feature",
			"geometry"	: {"type": "Point", "coordinates": [-3.191161, 55.943362]},
			"properties": {"marker-size": "medium", "location": "meal.feed.large", "rgb-string": "#40ff00", "marker-color": "#40ff00", "marker-symbol": "lighthouse"}
			},
	{"type": "Feature",
			"geometry"	: {"type": "Point", "coordinates": [-3.190727, 55.943092]},
			"properties": {"marker-size": "medium", "location": "relate.chill.vest", "rgb-string": "#00ff00", "marker-color": "#00ff00", "marker-symbol": "lighthouse"}
			},
	{"type": "Feature",
			"geometry"	: {"type": "Point", "coordinates": [-3.191161, 55.942742]},
			"properties": {"marker-size": "medium", "location": "along.spill.limp", "rgb-string": "#00ff00", "marker-color": "#00ff00", "marker-symbol": "lighthouse"}
			},
	{"type": "Feature",
			"geometry"	: {"type": "Point", "coordinates": [-3.191161, 55.943065]},
			"properties": {"marker-size": "medium", "location": "else.urban.museum", "rgb-string": "#00ff00", "marker-color": "#00ff00", "marker-symbol": "lighthouse"}
			},
	{"type": "Feature",
			"geometry"	: {"type": "Point", "coordinates": [-3.190294, 55.943712]},
			"properties": {"marker-size": "medium", "location": "sculpture.shot.melon", "rgb-string": "#40ff00", "marker-color": "#40ff00", "marker-symbol": "lighthouse"}
			},
	{"type": "Feature",
			"geometry"	: {"type": "Point", "coordinates": [-3.189812, 55.94409]},
			"properties": {"marker-size": "medium", "location": "cliff.asleep.wedge", "rgb-string": "#40ff00", "marker-color": "#40ff00", "marker-symbol": "lighthouse"}
			},
	{"type": "Feature",
			"geometry"	: {"type": "Point", "coordinates": [-3.189138, 55.944197]},
			"properties": {"marker-size": "medium", "location": "spoon.invest.every", "rgb-string": "#40ff00", "marker-color": "#40ff00", "marker-symbol": "lighthouse"}
			},
	{"type": "Feature",
			"geometry"	: {"type": "Point", "coordinates": [-3.188271, 55.944063]},
			"properties": {"marker-size": "medium", "location": "rush.crown.link", "rgb-string": "#00ff00", "marker-color": "#00ff00", "marker-symbol": "lighthouse"}
			},
	{"type": "Feature",
			"geometry"	: {"type": "Point", "coordinates": [-3.188126, 55.943793]},
			"properties": {"marker-size": "medium", "location": "cubs.trucks.help", "rgb-string": "#40ff00", "marker-color": "#40ff00", "marker-symbol": "lighthouse"}
			},
	{"type": "Feature",
			"geometry"	: {"type": "Point", "coordinates": [-3.188704, 55.943389]},
			"properties": {"marker-size": "medium", "location": "system.speak.guard", "rgb-string": "#00ff00", "marker-color": "#00ff00", "marker-symbol": "lighthouse"}
			},
	{"type": "Feature",
			"geometry"	: {"type": "Point", "coordinates": [-3.189764, 55.942661]},
			"properties": {"marker-size": "medium", "location": "hooked.shine.third", "rgb-string": "#40ff00", "marker-color": "#40ff00", "marker-symbol": "lighthouse"}
			},
	{"type": "Feature",
			"geometry"	: {"type": "Point", "coordinates": [-3.188608, 55.943119]},
			"properties": {"marker-size": "medium", "location": "groups.ideas.script", "rgb-string": "#40ff00", "marker-color": "#40ff00", "marker-symbol": "lighthouse"}
			},
	{"type": "Feature",
			"geometry"	: {"type": "Point", "coordinates": [-3.18697, 55.942688]},
			"properties": {"marker-size": "medium", "location": "strut.river.surely", "rgb-string": "#ff4000", "marker-color": "#ff4000", "marker-symbol": "danger"}
			},
	{"type": "Feature",
			"geometry"	: {"type": "Point", "coordinates": [-3.187355, 55.943604]},
			"properties": {"marker-size": "medium", "location": "shut.stands.media", "rgb-string": "#80ff00", "marker-color": "#80ff00", "marker-symbol": "lighthouse"}
			},
	{"type": "Feature",
			"geometry"	: {"type": "Point", "coordinates": [-3.187018, 55.943982]},
			"properties": {"marker-size": "medium", "location": "renew.ears.tend", "rgb-string": "#80ff00", "marker-color": "#80ff00", "marker-symbol": "lighthouse"}
			},
	{"type": "Feature",
			"geometry"	: {"type": "Point", "coordinates": [-3.187789, 55.944386]},
			"properties": {"marker-size": "medium", "location": "thank.salsa.brain", "rgb-string": "#40ff00", "marker-color": "#40ff00", "marker-symbol": "lighthouse"}
			},
	{"type": "Feature",
			"geometry"	: {"type": "Point", "coordinates": [-3.187307, 55.944494]},
			"properties": {"marker-size": "medium", "location": "only.fairly.rift", "rgb-string": "#ffc000", "marker-color": "#ffc000", "marker-symbol": "danger"}
			},
	{"type": "Feature",
			"geometry"	: {"type": "Point", "coordinates": [-3.186729, 55.945168]},
			"properties": {"marker-size": "medium", "location": "dragon.bottle.crisp", "rgb-string": "#ffc000", "marker-color": "#ffc000", "marker-symbol": "danger"}
			},
	{"type": "Feature",
			"geometry": {"type": "LineString",
				"coordinates": [
				[-3.188396, 55.944425],[-3.188100557674096, 55.944477094453305],[-3.1878186498878605, 55.944374488410304],[-3.1875367421016247, 55.9442718823673],[-3.187254834315389, 55.9441692763243],[-3.1869729265291533, 55.9440666702813],[-3.1866910187429176, 55.9439640642383],[-3.186409110956682, 55.9440666702813],[-3.186127203170446, 55.9441692763243],[-3.1860245971274486, 55.943887368538064],[-3.1857291548015447, 55.943939462991366],[-3.185433712475641, 55.94399155744467],[-3.185240876192735, 55.94376174411173],[-3.1850480399098293, 55.943531930778796],[-3.1851001343631293, 55.9438273731047],[-3.1851522288164293, 55.94412281543061],[-3.1852043232697294, 55.94441825775652],[-3.1850114869868236, 55.94464807108945],[-3.184818650703918, 55.94487788442239],[-3.184625814421012, 55.945107697755326],[-3.184475814421012, 55.94536750537646],[-3.1847577222072476, 55.94547011141946],[-3.1850396299934833, 55.94557271746246],[-3.185321537779719, 55.94567532350546],[-3.1856034455659548, 55.94577792954846],[-3.1857962818488605, 55.9460077428814],[-3.1860917241747644, 55.9459556484281],[-3.1863871665006682, 55.945903553974794],[-3.186682608826572, 55.94585145952149],[-3.186978051152476, 55.94579936506819],[-3.1872734934783797, 55.94574727061489],[-3.1875689358042836, 55.945695176161585],[-3.1878643781301874, 55.94564308170828],[-3.188146285916423, 55.94554047566528],[-3.188441728242327, 55.94548838121198],[-3.188591728242327, 55.945748188833115],[-3.188887170568231, 55.94569609437981],[-3.189187170568231, 55.94569609437981],[-3.1894871705682313, 55.94569609437981],[-3.1897871705682315, 55.94569609437981],[-3.1900871705682317, 55.94569609437981],[-3.190387170568232, 55.94569609437981],[-3.1906469781893674, 55.94584609437981],[-3.1909469781893676, 55.94584609437981],[-3.1911767915223033, 55.946038930662716],[-3.1911246970690033, 55.94574348833681],[-3.1910726026157032, 55.9454480460109],[-3.1910205081624032, 55.945152603684996],[-3.1910726026157032, 55.94485716135909],[-3.1910205081624032, 55.94456171903318],[-3.1910726026157032, 55.944266276707275],[-3.1911246970690033, 55.94397083438137],[-3.1911767915223033, 55.94367539205546],[-3.1911246970690033, 55.943379949729554],[-3.1908948837360676, 55.94318711344665],[-3.1910448837360676, 55.94292730582551],[-3.1911948837360677, 55.94266749820438],[-3.1911427892827677, 55.942962940530286],[-3.190912975949832, 55.94315577681319],[-3.1906831626168963, 55.9433486130961],[-3.1904533492839606, 55.943541449379005],[-3.190260513001055, 55.94377126271194],[-3.190030699668119, 55.94396409899485],[-3.1898008863351834, 55.94415693527775],[-3.1895054440092796, 55.944209029731056],[-3.1892100016833758, 55.94415693527775],[-3.188914559357472, 55.94410484082445],[-3.188619117031568, 55.94405274637115],[-3.1883236747056642, 55.94400065191785],[-3.1881308384227585, 55.94377083858491],[-3.1884262807486623, 55.94371874413161],[-3.188721723074566, 55.943666649678306],[-3.188571723074566, 55.94340684205717],[-3.18886716540047, 55.94335474760387],[-3.1891626077263737, 55.94330265315057],[-3.1894580500522776, 55.943250558697265],[-3.1896080500522777, 55.94299075107613],[-3.1897580500522777, 55.942730943455],[-3.1896080500522777, 55.94299075107613],[-3.189312607726374, 55.94304284552943],[-3.18901716540047, 55.943094939982736],[-3.188721723074566, 55.94314703443604],[-3.1884262807486623, 55.943094939982736],[-3.1881443729624266, 55.942992333939735],[-3.1878489306365227, 55.94294023948643],[-3.187567022850287, 55.94283763344343],[-3.187271580524383, 55.94278553899013],[-3.1869896727381475, 55.94268293294713],[-3.1871396727381476, 55.94294274056826],[-3.1872896727381477, 55.9432025481894],[-3.1873922787811453, 55.943484455975636],[-3.1870968364552414, 55.94353655042894],[-3.1872468364552415, 55.94379635805007],[-3.186964928669006, 55.94389896409307],[-3.1872247362901414, 55.94404896409307],[-3.187484543911277, 55.94419896409307],[-3.1877443515324124, 55.94434896409307],[-3.1874624437461767, 55.94445157013607],[-3.187180535959941, 55.94455417617907],[-3.1868986281737053, 55.94465678222207],[-3.1866388205525698, 55.94480678222207],[-3.186379012931434, 55.944956782222064],[-3.18660882626437, 55.94514961850497],[-3.1868386395973056, 55.94534245478788],[-3.1870684529302413, 55.94553529107078],[-3.187328260551377, 55.94568529107078],[-3.1876237028772807, 55.94563319661748],[-3.1879056106635164, 55.94553059057448],[-3.188165418284652, 55.94538059057448],[-3.188113323831352, 55.94508514824857],[-3.188061229378052, 55.944789705922666],[-3.188009134924752, 55.94449426359676],[-3.1883045772506557, 55.94444216914346]
				]
			},"properties":{
		}
	}
		
	]
}