{"type": "FeatureCollection",
	"features"	: [
	{"type": "Feature",
			"geometry"	: {"type": "Polygon", "coordinates": [[[-3.1871804594993587, 55.94448750356385],[-3.187042325735092, 55.944193856370475],[-3.1869766116142273, 55.94420361961219],[-3.186897486448288, 55.94404815847112],[-3.186330199241638, 55.94413227278919],[-3.186405301094055, 55.944296745793935],[-3.1863033771514893, 55.944311015108454],[-3.1863395869731903, 55.94437109637507],[-3.186409324407577, 55.94436208419099],[-3.186425417661667, 55.944397381899876],[-3.186226934194565, 55.94442366740687],[-3.1863945722579956, 55.94457011490493],[-3.1864307820796967, 55.94458588614092],[-3.186488449573517, 55.94459189422912],[-3.1871804594993587, 55.94448750356385],[-3.1871804594993587, 55.94448750356385]]]},
		"properties": {"fill-opacity": 0.5, "fill": "#ff0000"}},
	{"type": "Feature",
			"geometry"	: {"type": "Polygon", "coordinates": [[[-3.186697661876678, 55.943360216655655],[-3.186556175351143, 55.94306656091478],[-3.186345621943474, 55.943098480124895],[-3.1864864379167557, 55.94339251114087],[-3.186697661876678, 55.943360216655655],[-3.186697661876678, 55.943360216655655]]]},
		"properties": {"fill-opacity": 0.5, "fill": "#ff0000"}},
	{"type": "Feature",
			"geometry"	: {"type": "Polygon", "coordinates": [[[-3.189708441495895, 55.94280820210462],[-3.1894750893115997, 55.94233128523903],[-3.1882721185684204, 55.942514542178216],[-3.1885054707527156, 55.94299295887116],[-3.189708441495895, 55.94280820210462],[-3.189708441495895, 55.94280820210462]]]},
		"properties": {"fill-opacity": 0.5, "fill": "#ff0000"}},
	{"type": "Feature",
			"geometry"	: {"type": "Polygon", "coordinates": [[[-3.188078999519348, 55.94541799748307],[-3.187633752822876, 55.94458288209647],[-3.1869176030158997, 55.94470154167527],[-3.187046349048614, 55.94494186375901],[-3.186909556388855, 55.944964393877896],[-3.18678081035614, 55.94481569485101],[-3.1865662336349487, 55.94487727734554],[-3.187113404273987, 55.94555317633777],[-3.1872957944869995, 55.945505112799054],[-3.187832236289978, 55.945460053177314],[-3.188078999519348, 55.94541799748307],[-3.188078999519348, 55.94541799748307]]]},
		"properties": {"fill-opacity": 0.5, "fill": "#ff0000"}},
	{"type": "Feature",
			"geometry"	: {"type": "Polygon", "coordinates": [[[-3.184319, 55.946233], [-3.184319, 55.942617], [-3.192473, 55.942617], [-3.192473, 55.946233]]]},
		"properties": {"fill-opacity": 0}},
	{"type": "Feature",
			"geometry"	: {"type": "Point", "coordinates": [-3.187789, 55.944386]},
			"properties": {"marker-size": "medium", "location": "thank.salsa.brain", "rgb-string": "#80ff00", "marker-color": "#80ff00", "marker-symbol": "lighthouse"}
			},
	{"type": "Feature",
			"geometry"	: {"type": "Point", "coordinates": [-3.187018, 55.943982]},
			"properties": {"marker-size": "medium", "location": "renew.ears.tend", "rgb-string": "#c0ff00", "marker-color": "#c0ff00", "marker-symbol": "lighthouse"}
			},
	{"type": "Feature",
			"geometry"	: {"type": "Point", "coordinates": [-3.187211, 55.943335]},
			"properties": {"marker-size": "medium", "location": "scale.chair.kinds", "rgb-string": "#ffc000", "marker-color": "#ffc000", "marker-symbol": "danger"}
			},
	{"type": "Feature",
			"geometry"	: {"type": "Point", "coordinates": [-3.187018, 55.942877]},
			"properties": {"marker-size": "medium", "location": "valve.elaborate.fortunate", "rgb-string": "#000000", "marker-color": "#000000", "marker-symbol": "cross"}
			},
	{"type": "Feature",
			"geometry"	: {"type": "Point", "coordinates": [-3.18697, 55.942688]},
			"properties": {"marker-size": "medium", "location": "strut.river.surely", "rgb-string": "#ffc000", "marker-color": "#ffc000", "marker-symbol": "danger"}
			},
	{"type": "Feature",
			"geometry"	: {"type": "Point", "coordinates": [-3.186344, 55.942958]},
			"properties": {"marker-size": "medium", "location": "hers.banks.goat", "rgb-string": "#ffc000", "marker-color": "#ffc000", "marker-symbol": "danger"}
			},
	{"type": "Feature",
			"geometry"	: {"type": "Point", "coordinates": [-3.186248, 55.942796]},
			"properties": {"marker-size": "medium", "location": "under.retire.bump", "rgb-string": "#ff0000", "marker-color": "#ff0000", "marker-symbol": "danger"}
			},
	{"type": "Feature",
			"geometry"	: {"type": "Point", "coordinates": [-3.185573, 55.942877]},
			"properties": {"marker-size": "medium", "location": "dent.shins.cycle", "rgb-string": "#ff0000", "marker-color": "#ff0000", "marker-symbol": "danger"}
			},
	{"type": "Feature",
			"geometry"	: {"type": "Point", "coordinates": [-3.185621, 55.943065]},
			"properties": {"marker-size": "medium", "location": "toned.deflection.bland", "rgb-string": "#ffc000", "marker-color": "#ffc000", "marker-symbol": "danger"}
			},
	{"type": "Feature",
			"geometry"	: {"type": "Point", "coordinates": [-3.184754, 55.943012]},
			"properties": {"marker-size": "medium", "location": "courier.assume.bill", "rgb-string": "#ff4000", "marker-color": "#ff4000", "marker-symbol": "danger"}
			},
	{"type": "Feature",
			"geometry"	: {"type": "Point", "coordinates": [-3.184803, 55.943173]},
			"properties": {"marker-size": "medium", "location": "brings.remedy.latter", "rgb-string": "#000000", "marker-color": "#000000", "marker-symbol": "cross"}
			},
	{"type": "Feature",
			"geometry"	: {"type": "Point", "coordinates": [-3.18514, 55.943685]},
			"properties": {"marker-size": "medium", "location": "hello.love.keys", "rgb-string": "#ffc000", "marker-color": "#ffc000", "marker-symbol": "danger"}
			},
	{"type": "Feature",
			"geometry"	: {"type": "Point", "coordinates": [-3.185525, 55.943982]},
			"properties": {"marker-size": "medium", "location": "manliness.poem.cliff", "rgb-string": "#c0ff00", "marker-color": "#c0ff00", "marker-symbol": "lighthouse"}
			},
	{"type": "Feature",
			"geometry"	: {"type": "Point", "coordinates": [-3.184465, 55.944952]},
			"properties": {"marker-size": "medium", "location": "sports.topic.clocks", "rgb-string": "#ff4000", "marker-color": "#ff4000", "marker-symbol": "danger"}
			},
	{"type": "Feature",
			"geometry"	: {"type": "Point", "coordinates": [-3.185814, 55.94603]},
			"properties": {"marker-size": "medium", "location": "renew.slows.basket", "rgb-string": "#ff8000", "marker-color": "#ff8000", "marker-symbol": "danger"}
			},
	{"type": "Feature",
			"geometry"	: {"type": "Point", "coordinates": [-3.186922, 55.945437]},
			"properties": {"marker-size": "medium", "location": "spent.spoon.bolt", "rgb-string": "#ff4000", "marker-color": "#ff4000", "marker-symbol": "danger"}
			},
	{"type": "Feature",
			"geometry"	: {"type": "Point", "coordinates": [-3.18856, 55.946057]},
			"properties": {"marker-size": "medium", "location": "boost.radar.stress", "rgb-string": "#ff4000", "marker-color": "#ff4000", "marker-symbol": "danger"}
			},
	{"type": "Feature",
			"geometry"	: {"type": "Point", "coordinates": [-3.189379, 55.945949]},
			"properties": {"marker-size": "medium", "location": "coherent.saints.stuck", "rgb-string": "#ff0000", "marker-color": "#ff0000", "marker-symbol": "danger"}
			},
	{"type": "Feature",
			"geometry"	: {"type": "Point", "coordinates": [-3.191065, 55.944709]},
			"properties": {"marker-size": "medium", "location": "estate.gave.votes", "rgb-string": "#40ff00", "marker-color": "#40ff00", "marker-symbol": "lighthouse"}
			},
	{"type": "Feature",
			"geometry"	: {"type": "Point", "coordinates": [-3.192221, 55.945114]},
			"properties": {"marker-size": "medium", "location": "useful.hike.trades", "rgb-string": "#ffc000", "marker-color": "#ffc000", "marker-symbol": "danger"}
			},
	{"type": "Feature",
			"geometry"	: {"type": "Point", "coordinates": [-3.191065, 55.94444]},
			"properties": {"marker-size": "medium", "location": "paying.crowd.weep", "rgb-string": "#000000", "marker-color": "#000000", "marker-symbol": "cross"}
			},
	{"type": "Feature",
			"geometry"	: {"type": "Point", "coordinates": [-3.191113, 55.94417]},
			"properties": {"marker-size": "medium", "location": "hills.giant.crate", "rgb-string": "#00ff00", "marker-color": "#00ff00", "marker-symbol": "lighthouse"}
			},
	{"type": "Feature",
			"geometry"	: {"type": "Point", "coordinates": [-3.191113, 55.943631]},
			"properties": {"marker-size": "medium", "location": "loaf.cheer.slave", "rgb-string": "#00ff00", "marker-color": "#00ff00", "marker-symbol": "lighthouse"}
			},
	{"type": "Feature",
			"geometry"	: {"type": "Point", "coordinates": [-3.191161, 55.943065]},
			"properties": {"marker-size": "medium", "location": "else.urban.museum", "rgb-string": "#000000", "marker-color": "#000000", "marker-symbol": "cross"}
			},
	{"type": "Feature",
			"geometry"	: {"type": "Point", "coordinates": [-3.189812, 55.94409]},
			"properties": {"marker-size": "medium", "location": "cliff.asleep.wedge", "rgb-string": "#40ff00", "marker-color": "#40ff00", "marker-symbol": "lighthouse"}
			},
	{"type": "Feature",
			"geometry"	: {"type": "Point", "coordinates": [-3.189908, 55.942904]},
			"properties": {"marker-size": "medium", "location": "second.launch.miles", "rgb-string": "#000000", "marker-color": "#000000", "marker-symbol": "cross"}
			},
	{"type": "Feature",
			"geometry"	: {"type": "Point", "coordinates": [-3.189764, 55.942661]},
			"properties": {"marker-size": "medium", "location": "hooked.shine.third", "rgb-string": "#40ff00", "marker-color": "#40ff00", "marker-symbol": "lighthouse"}
			},
	{"type": "Feature",
			"geometry"	: {"type": "Point", "coordinates": [-3.189234, 55.943012]},
			"properties": {"marker-size": "medium", "location": "region.passes.pencil", "rgb-string": "#40ff00", "marker-color": "#40ff00", "marker-symbol": "lighthouse"}
			},
	{"type": "Feature",
			"geometry"	: {"type": "Point", "coordinates": [-3.188608, 55.943119]},
			"properties": {"marker-size": "medium", "location": "groups.ideas.script", "rgb-string": "#80ff00", "marker-color": "#80ff00", "marker-symbol": "lighthouse"}
			},
	{"type": "Feature",
			"geometry"	: {"type": "Point", "coordinates": [-3.188945, 55.943928]},
			"properties": {"marker-size": "medium", "location": "noted.friday.jams", "rgb-string": "#40ff00", "marker-color": "#40ff00", "marker-symbol": "lighthouse"}
			},
	{"type": "Feature",
			"geometry"	: {"type": "Point", "coordinates": [-3.189138, 55.944197]},
			"properties": {"marker-size": "medium", "location": "spoon.invest.every", "rgb-string": "#40ff00", "marker-color": "#40ff00", "marker-symbol": "lighthouse"}
			},
	{"type": "Feature",
			"geometry"	: {"type": "Point", "coordinates": [-3.188801, 55.945437]},
			"properties": {"marker-size": "medium", "location": "shady.soft.phones", "rgb-string": "#ffc000", "marker-color": "#ffc000", "marker-symbol": "danger"}
			},
	{"type": "Feature",
			"geometry"	: {"type": "Point", "coordinates": [-3.18803, 55.944979]},
			"properties": {"marker-size": "medium", "location": "agents.mile.crib", "rgb-string": "#c0ff00", "marker-color": "#c0ff00", "marker-symbol": "lighthouse"}
			},
	{"type": "Feature",
			"geometry": {"type": "LineString",
				"coordinates": [
				[-3.188396, 55.944425],[-3.188100557674096, 55.944477094453305],[-3.1878186498878605, 55.944374488410304],[-3.187558842266725, 55.944224488410306],[-3.187276934480489, 55.944121882367305],[-3.1870171268593537, 55.94397188236731],[-3.1873125691852575, 55.943919787914005],[-3.1871625691852574, 55.94365998029287],[-3.1870125691852573, 55.94340017267174],[-3.187308011511161, 55.943348078218435],[-3.187158011511161, 55.9430882705973],[-3.187008011511161, 55.942828462976166],[-3.1867781981782253, 55.94263562669326],[-3.1865483848452896, 55.942828462976166],[-3.186288577224154, 55.942978462976164],[-3.186340671677454, 55.94268302065026],[-3.18604522935155, 55.94273511510356],[-3.1857633215653145, 55.94283772114656],[-3.1856133215653144, 55.943097528767694],[-3.1853314137790787, 55.942994922724694],[-3.1850314137790785, 55.942994922724694],[-3.1847314137790783, 55.942994922724694],[-3.184834019822076, 55.94327683051093],[-3.1850268561049817, 55.94350664384387],[-3.185176856104982, 55.943766451465],[-3.1853696923878876, 55.94399626479794],[-3.185176856104982, 55.944226078130875],[-3.184984019822076, 55.94445589146381],[-3.1847911835391702, 55.94468570479675],[-3.1845983472562645, 55.94491551812968],[-3.1848281605892, 55.94510835441259],[-3.185057973922136, 55.945301190695496],[-3.1852877872550716, 55.9454940269784],[-3.1854806235379773, 55.94572384031134],[-3.185710436870913, 55.945916676594244],[-3.186005879196817, 55.94586458214094],[-3.1863013215227207, 55.94581248768764],[-3.1865967638486246, 55.94576039323434],[-3.1868922061745284, 55.945708298781035],[-3.1867422061745283, 55.9454484911599],[-3.187024113960764, 55.9455510972029],[-3.1873060217469997, 55.9456537032459],[-3.1875879295332354, 55.9457563092889],[-3.187869837319471, 55.945858915331904],[-3.188151745105707, 55.945961521374905],[-3.1884471874316107, 55.94601361582821],[-3.188747187431611, 55.94601361582821],[-3.1890426297575147, 55.945961521374905],[-3.189342629757515, 55.945961521374905],[-3.1895724430904506, 55.945768685092],[-3.1898022564233863, 55.94557584880909],[-3.190062064044522, 55.945425848809094],[-3.1902918773774576, 55.94523301252619],[-3.190551684998593, 55.94508301252619],[-3.190781498331529, 55.944890176243284],[-3.1910413059526643, 55.944740176243286],[-3.191336748278568, 55.94479227069659],[-3.191618656064804, 55.94489487673959],[-3.1919005638510396, 55.94499748278259],[-3.1921824716372753, 55.94510008882559],[-3.1919005638510396, 55.94499748278259],[-3.191640756229904, 55.94484748278259],[-3.1913809486087685, 55.944697482782594],[-3.191121140987633, 55.944547482782596],[-3.191069046534333, 55.94425204045669],[-3.191121140987633, 55.94395659813078],[-3.191069046534333, 55.943661155804875],[-3.191121140987633, 55.94336571347897],[-3.191173235440933, 55.94307027115306],[-3.1909434221079973, 55.94326310743597],[-3.1907136087750616, 55.943455943718874],[-3.190483795442126, 55.94364878000178],[-3.19025398210919, 55.943841616284686],[-3.1900241687762545, 55.94403445256759],[-3.1897287264503507, 55.944086547020895],[-3.1897808209036507, 55.94379110469499],[-3.1898329153569507, 55.94349566236908],[-3.1898850098102507, 55.943200220043174],[-3.1899371042635507, 55.94290477771727],[-3.1897871042635506, 55.94264497009613],[-3.189684498220553, 55.94292687788237],[-3.189389055894649, 55.94297897233567],[-3.1890936135687453, 55.943031066788976],[-3.1887981712428415, 55.94308316124228],[-3.1890936135687453, 55.94313525569558],[-3.1887981712428415, 55.94318735014888],[-3.189057978863977, 55.94333735014888],[-3.188762536538073, 55.94338944460218],[-3.188955372820979, 55.94361925793512],[-3.1891482091038847, 55.943849071268055],[-3.188866301317649, 55.943951677311055],[-3.1890961146505847, 55.94414451359396],[-3.1889461146505846, 55.944404321215096],[-3.1887961146505845, 55.94466412883623],[-3.188898720693582, 55.94494603662247],[-3.188748720693582, 55.9452058442436],[-3.1888513267365797, 55.94548775202984],[-3.188621513403644, 55.945294915746935],[-3.1883917000707083, 55.94510207946403],[-3.1881618867377726, 55.94490924318112],[-3.1881097922844726, 55.944613800855215],[-3.188369599905608, 55.94476380085521],[-3.188317505452308, 55.944468358529306]
				]
			},"properties":{
		}
	}
		
	]
}